[
  {
    "NOMBRE DE LA INSTITUCION": "JCCRO000036",
    "MUNICIPIO": "JCCRO000036",
    "LOCALIDAD": "JCCRO000036",
    "NOMBRE DE LA UNIDAD": "JCCRO000036",
    "ESTRATO UNIDAD": "URBANO",
    "LATITUD": "20.6794678",
    "LONGITUD": "-103.3419135"
  },
  {
    "NOMBRE DE LA INSTITUCION": "CRUZ ROJA MEXICANA",
    "MUNICIPIO": "TECALITLAN",
    "LOCALIDAD": "TECALITLAN",
    "NOMBRE DE LA UNIDAD": "CRUZ ROJA MEXICANA BASE TECALITLÁN",
    "ESTRATO UNIDAD": "URBANO",
    "LATITUD": "19.4793795",
    "LONGITUD": "-103.3017676"
  },
  {
    "NOMBRE DE LA INSTITUCION": "CRUZ ROJA MEXICANA",
    "MUNICIPIO": "TOMATLAN",
    "LOCALIDAD": "TOMATLAN",
    "NOMBRE DE LA UNIDAD": "CRUZ ROJA MEXICANA DELEGACIÓN TOMATLÁN JALISCO",
    "ESTRATO UNIDAD": "URBANO",
    "LATITUD": "19.935226",
    "LONGITUD": "-105.2535546"
  },
  {
    "NOMBRE DE LA INSTITUCION": "CRUZ ROJA MEXICANA",
    "MUNICIPIO": "PUERTO VALLARTA",
    "LOCALIDAD": "PUERTO VALLARTA",
    "NOMBRE DE LA UNIDAD": "CRUZ ROJA MEXICANA DELEGACIÓN PUERTO VALLARTA",
    "ESTRATO UNIDAD": "URBANO",
    "LATITUD": "20.6229165",
    "LONGITUD": "-105.2223336"
  },
  {
    "NOMBRE DE LA INSTITUCION": "CRUZ ROJA MEXICANA",
    "MUNICIPIO": "ATOTONILCO EL ALTO",
    "LOCALIDAD": "ATOTONILCO EL ALTO",
    "NOMBRE DE LA UNIDAD": "CRUZ ROJA MEXICANA DELEGACION ATOTONILCO",
    "ESTRATO UNIDAD": "URBANO",
    "LATITUD": "20.5492852",
    "LONGITUD": "-102.5136678"
  },
  {
    "NOMBRE DE LA INSTITUCION": "CRUZ ROJA MEXICANA",
    "MUNICIPIO": "TEQUILA",
    "LOCALIDAD": "TEQUILA",
    "NOMBRE DE LA UNIDAD": "CRUZ ROJA MEXICANA DELEGACIÓN TEQUILA",
    "ESTRATO UNIDAD": "URBANO",
    "LATITUD": "20.8884588",
    "LONGITUD": "-103.8357134"
  },
  {
    "NOMBRE DE LA INSTITUCION": "CRUZ ROJA MEXICANA",
    "MUNICIPIO": "AUTLAN DE NAVARRO",
    "LOCALIDAD": "AUTLAN DE NAVARRO",
    "NOMBRE DE LA UNIDAD": "CRUZ ROJA MEXICANA DELEGACIÓN AUTLÁN",
    "ESTRATO UNIDAD": "URBANO",
    "LATITUD": "19.7712842",
    "LONGITUD": "-104.3640527"
  },
  {
    "NOMBRE DE LA INSTITUCION": "CRUZ ROJA MEXICANA",
    "MUNICIPIO": "SAN PEDRO TLAQUEPAQUE",
    "LOCALIDAD": "TLAQUEPAQUE",
    "NOMBRE DE LA UNIDAD": "CRUZ ROJA MEXICANA BASE TOLUQUILLA",
    "ESTRATO UNIDAD": "URBANO",
    "LATITUD": "20.5773066",
    "LONGITUD": "-103.363111"
  },
  {
    "NOMBRE DE LA INSTITUCION": "CRUZ ROJA MEXICANA",
    "MUNICIPIO": "ZAPOTLAN EL GRANDE",
    "LOCALIDAD": "CIUDAD GUZMAN",
    "NOMBRE DE LA UNIDAD": "CRUZ ROJA MEXICANA DELEGACION CIUDAD GUZMAN",
    "ESTRATO UNIDAD": "URBANO",
    "LATITUD": "19.6899903",
    "LONGITUD": "-103.4692851"
  },
  {
    "NOMBRE DE LA INSTITUCION": "CRUZ ROJA MEXICANA",
    "MUNICIPIO": "CHAPALA",
    "LOCALIDAD": "CHAPALA",
    "NOMBRE DE LA UNIDAD": "CRUZ ROJA MEXICANA DELEGACION CHAPALA",
    "ESTRATO UNIDAD": "URBANO",
    "LATITUD": "20.2872574",
    "LONGITUD": "-103.1888239"
  },
  {
    "NOMBRE DE LA INSTITUCION": "CRUZ ROJA MEXICANA",
    "MUNICIPIO": "LAGOS DE MORENO",
    "LOCALIDAD": "LAGOS DE MORENO",
    "NOMBRE DE LA UNIDAD": "CRUZ ROJA MEXICANA DELEGACIÓN LAGOS DE MORENO",
    "ESTRATO UNIDAD": "URBANO",
    "LATITUD": "21.370042",
    "LONGITUD": "-101.9071828"
  },
  {
    "NOMBRE DE LA INSTITUCION": "CRUZ ROJA MEXICANA",
    "MUNICIPIO": "JALOSTOTITLAN",
    "LOCALIDAD": "JALOSTOTITLAN",
    "NOMBRE DE LA UNIDAD": "CRUZ ROJA MEXICANA DELEGACIÓN JALOSTOTITLÁN",
    "ESTRATO UNIDAD": "URBANO",
    "LATITUD": "21.1739317",
    "LONGITUD": "-102.465115"
  },
  {
    "NOMBRE DE LA INSTITUCION": "CRUZ ROJA MEXICANA",
    "MUNICIPIO": "TEPATITLAN DE MORELOS",
    "LOCALIDAD": "CAPILLA DE GUADALUPE",
    "NOMBRE DE LA UNIDAD": "CRUZ ROJA MEXICANA DELEGACION CAPILLA DE GUADALUPE",
    "ESTRATO UNIDAD": "URBANO",
    "LATITUD": "20.8260119",
    "LONGITUD": "-102.5987483"
  },
  {
    "NOMBRE DE LA INSTITUCION": "CRUZ ROJA MEXICANA",
    "MUNICIPIO": "SAN JUAN DE LOS LAGOS",
    "LOCALIDAD": "SAN JUAN DE LOS LAGOS",
    "NOMBRE DE LA UNIDAD": "CRUZ ROJA MEXICANA DELEGACIÓN SAN JUAN DE LOS LAGOS",
    "ESTRATO UNIDAD": "URBANO",
    "LATITUD": "21.2437175",
    "LONGITUD": "-102.32363"
  },
  {
    "NOMBRE DE LA INSTITUCION": "CRUZ ROJA MEXICANA",
    "MUNICIPIO": "VALLE DE GUADALUPE",
    "LOCALIDAD": "VALLE DE GUADALUPE",
    "NOMBRE DE LA UNIDAD": "CRUZ ROJA MEXICANA DELEGACION VALLE DE GUADALUPE",
    "ESTRATO UNIDAD": "URBANO",
    "LATITUD": "21.0112886",
    "LONGITUD": "-102.6190654"
  },
  {
    "NOMBRE DE LA INSTITUCION": "CRUZ ROJA MEXICANA",
    "MUNICIPIO": "SAYULA",
    "LOCALIDAD": "SAYULA",
    "NOMBRE DE LA UNIDAD": "CRUZ ROJA MEXICANA DELEGACION SAYULA",
    "ESTRATO UNIDAD": "URBANO",
    "LATITUD": "19.8851175",
    "LONGITUD": "-103.5903212"
  },
  {
    "NOMBRE DE LA INSTITUCION": "CRUZ ROJA MEXICANA",
    "MUNICIPIO": "TEPATITLAN DE MORELOS",
    "LOCALIDAD": "PEGUEROS",
    "NOMBRE DE LA UNIDAD": "CRUZ ROJA MEXICANA DELEGACION PEGUEROS",
    "ESTRATO UNIDAD": "URBANO",
    "LATITUD": "20.9525387",
    "LONGITUD": "-102.6653585"
  },
  {
    "NOMBRE DE LA INSTITUCION": "CRUZ ROJA MEXICANA",
    "MUNICIPIO": "AMECA",
    "LOCALIDAD": "AMECA",
    "NOMBRE DE LA UNIDAD": "CRUZ ROJA MEXICANA DELEGACION AMECA",
    "ESTRATO UNIDAD": "URBANO",
    "LATITUD": "20.5386482",
    "LONGITUD": "-104.0313487"
  },
  {
    "NOMBRE DE LA INSTITUCION": "CRUZ ROJA MEXICANA",
    "MUNICIPIO": "CIHUATLAN",
    "LOCALIDAD": "CIHUATLAN",
    "NOMBRE DE LA UNIDAD": "CRUZ ROJA MEXICANA DELEGACION CIHUATLÁN",
    "ESTRATO UNIDAD": "URBANO",
    "LATITUD": "19.2363996",
    "LONGITUD": "-104.5604936"
  },
  {
    "NOMBRE DE LA INSTITUCION": "SISTEMA NACIONAL PARA EL DESARROLLO INTEGRAL DE LA FAMILIA",
    "MUNICIPIO": "GUADALAJARA",
    "LOCALIDAD": "GUADALAJARA",
    "NOMBRE DE LA UNIDAD": "SISTEMA PARA EL DESARROLLO INTEGRAL DE LA FAMILIA JALISCO",
    "ESTRATO UNIDAD": "URBANO"
  },
  {
    "NOMBRE DE LA INSTITUCION": "SISTEMA NACIONAL PARA EL DESARROLLO INTEGRAL DE LA FAMILIA",
    "MUNICIPIO": "GUADALAJARA",
    "LOCALIDAD": "GUADALAJARA",
    "NOMBRE DE LA UNIDAD": "CENTRO DE REHABILITACIÓN INTEGRAL DIF JALISCO",
    "ESTRATO UNIDAD": "URBANO",
    "LATITUD": "20.7011863",
    "LONGITUD": "-103.3481374"
  },
  {
    "NOMBRE DE LA INSTITUCION": "SISTEMA NACIONAL PARA EL DESARROLLO INTEGRAL DE LA FAMILIA",
    "MUNICIPIO": "GUADALAJARA",
    "LOCALIDAD": "GUADALAJARA",
    "NOMBRE DE LA UNIDAD": "CLÍNICA DENTAL DIF GUADALAJARA",
    "ESTRATO UNIDAD": "URBANO",
    "LATITUD": "20.6972547",
    "LONGITUD": "-103.3605167"
  },
  {
    "NOMBRE DE LA INSTITUCION": "SERVICIOS MEDICOS UNIVERSITARIOS",
    "MUNICIPIO": "ZAPOPAN",
    "LOCALIDAD": "ZAPOPAN",
    "NOMBRE DE LA UNIDAD": "HOSPITAL ÁNGEL LEAÑO",
    "ESTRATO UNIDAD": "URBANO",
    "LATITUD": "20.7576179",
    "LONGITUD": "-103.4152894"
  },
  {
    "NOMBRE DE LA INSTITUCION": "SERVICIOS MEDICOS UNIVERSITARIOS",
    "MUNICIPIO": "ZAPOTLAN EL GRANDE",
    "LOCALIDAD": "CIUDAD GUZMAN",
    "NOMBRE DE LA UNIDAD": "CLÍNICA DEL CENTRO UNIVERSITARIO DEL SUR DE LA UNIVERSIDAD DE GUADALAJARA",
    "ESTRATO UNIDAD": "URBANO",
    "LATITUD": "19.7247733",
    "LONGITUD": "-103.4606239"
  },
  {
    "NOMBRE DE LA INSTITUCION": "INSTITUTO MEXICANO DEL SEGURO SOCIAL REGIMEN BIENESTAR",
    "MUNICIPIO": "TEPATITLAN DE MORELOS",
    "LOCALIDAD": "TEPATITLAN DE MORELOS",
    "NOMBRE DE LA UNIDAD": "TEPATITLÁN DE MORELOS",
    "ESTRATO UNIDAD": "URBANO",
    "LATITUD": "20.8151257",
    "LONGITUD": "-102.7634553"
  },
  {
    "NOMBRE DE LA INSTITUCION": "INSTITUTO MEXICANO DEL SEGURO SOCIAL REGIMEN BIENESTAR",
    "MUNICIPIO": "ATOTONILCO EL ALTO",
    "LOCALIDAD": "ATOTONILCO EL ALTO",
    "NOMBRE DE LA UNIDAD": "ATOTONILCO EL ALTO",
    "ESTRATO UNIDAD": "URBANO",
    "LATITUD": "20.5486379",
    "LONGITUD": "-102.5101744"
  },
  {
    "NOMBRE DE LA INSTITUCION": "INSTITUTO MEXICANO DEL SEGURO SOCIAL REGIMEN BIENESTAR",
    "MUNICIPIO": "LAGOS DE MORENO",
    "LOCALIDAD": "LAGOS DE MORENO",
    "NOMBRE DE LA UNIDAD": "LAGOS DE MORENO",
    "ESTRATO UNIDAD": "URBANO",
    "LATITUD": "21.3558",
    "LONGITUD": "-101.933"
  },
  {
    "NOMBRE DE LA INSTITUCION": "INSTITUTO MEXICANO DEL SEGURO SOCIAL REGIMEN BIENESTAR",
    "MUNICIPIO": "TUXPAN",
    "LOCALIDAD": "TUXPAN",
    "NOMBRE DE LA UNIDAD": "TUXPAN (JAL)",
    "ESTRATO UNIDAD": "URBANO",
    "LATITUD": "19.5568226",
    "LONGITUD": "-103.3846228"
  },
  {
    "NOMBRE DE LA INSTITUCION": "INSTITUTO MEXICANO DEL SEGURO SOCIAL REGIMEN BIENESTAR",
    "MUNICIPIO": "ZAPOTILTIC",
    "LOCALIDAD": "ZAPOTILTIC",
    "NOMBRE DE LA UNIDAD": "ZAPOTILTIC",
    "ESTRATO UNIDAD": "URBANO",
    "LATITUD": "19.624868",
    "LONGITUD": "-103.4193386"
  },
  {
    "NOMBRE DE LA INSTITUCION": "INSTITUTO MEXICANO DEL SEGURO SOCIAL REGIMEN BIENESTAR",
    "MUNICIPIO": "ZAPOTLAN EL GRANDE",
    "LOCALIDAD": "CIUDAD GUZMAN",
    "NOMBRE DE LA UNIDAD": "CIUDAD GUZMÁN",
    "ESTRATO UNIDAD": "URBANO",
    "LATITUD": "19.7201966",
    "LONGITUD": "-103.4606623"
  },
  {
    "NOMBRE DE LA INSTITUCION": "INSTITUTO MEXICANO DEL SEGURO SOCIAL REGIMEN BIENESTAR",
    "MUNICIPIO": "PUERTO VALLARTA",
    "LOCALIDAD": "PUERTO VALLARTA",
    "NOMBRE DE LA UNIDAD": "PUERTO VALLARTA",
    "ESTRATO UNIDAD": "URBANO",
    "LATITUD": "20.6527988",
    "LONGITUD": "-105.2180181"
  },
  {
    "NOMBRE DE LA INSTITUCION": "INSTITUTO MEXICANO DEL SEGURO SOCIAL REGIMEN BIENESTAR",
    "MUNICIPIO": "ENCARNACION DE DIAZ",
    "LOCALIDAD": "ENCARNACION DE DIAZ",
    "NOMBRE DE LA UNIDAD": "ENCARNACIÓN DE DÍAZ",
    "ESTRATO UNIDAD": "URBANO",
    "LATITUD": "21.5242",
    "LONGITUD": "-102.237"
  },
  {
    "NOMBRE DE LA INSTITUCION": "INSTITUTO MEXICANO DEL SEGURO SOCIAL REGIMEN BIENESTAR",
    "MUNICIPIO": "GOMEZ FARIAS",
    "LOCALIDAD": "SAN SEBASTIAN DEL SUR",
    "NOMBRE DE LA UNIDAD": "GÓMEZ FARIAS",
    "ESTRATO UNIDAD": "URBANO",
    "LATITUD": "19.7942",
    "LONGITUD": "-103.477"
  },
  {
    "NOMBRE DE LA INSTITUCION": "INSTITUTO MEXICANO DEL SEGURO SOCIAL",
    "MUNICIPIO": "ACATIC",
    "LOCALIDAD": "ACATIC",
    "NOMBRE DE LA UNIDAD": "UMF 128 ACATIC",
    "ESTRATO UNIDAD": "URBANO",
    "LATITUD": "20.7696",
    "LONGITUD": "-102.9113"
  },
  {
    "NOMBRE DE LA INSTITUCION": "INSTITUTO MEXICANO DEL SEGURO SOCIAL",
    "MUNICIPIO": "ACATLAN DE JUAREZ",
    "LOCALIDAD": "ACATLAN DE JUAREZ",
    "NOMBRE DE LA UNIDAD": "UMF 56 ACATLÁN",
    "ESTRATO UNIDAD": "URBANO",
    "LATITUD": "20.4233",
    "LONGITUD": "-103.59408"
  },
  {
    "NOMBRE DE LA INSTITUCION": "INSTITUTO MEXICANO DEL SEGURO SOCIAL",
    "MUNICIPIO": "ACATLAN DE JUAREZ",
    "LOCALIDAD": "BELLAVISTA",
    "NOMBRE DE LA UNIDAD": "UMF 30 BELLA VISTA",
    "ESTRATO UNIDAD": "URBANO",
    "LATITUD": "20.4329",
    "LONGITUD": "-103.636"
  },
  {
    "NOMBRE DE LA INSTITUCION": "INSTITUTO MEXICANO DEL SEGURO SOCIAL",
    "MUNICIPIO": "AHUALULCO DE MERCADO",
    "LOCALIDAD": "AHUALULCO DE MERCADO",
    "NOMBRE DE LA UNIDAD": "UMFH 31 AHUALULCO",
    "ESTRATO UNIDAD": "URBANO",
    "LATITUD": "20.7067",
    "LONGITUD": "-103.9758"
  },
  {
    "NOMBRE DE LA INSTITUCION": "INSTITUTO MEXICANO DEL SEGURO SOCIAL",
    "MUNICIPIO": "AMATITAN",
    "LOCALIDAD": "AMATITAN",
    "NOMBRE DE LA UNIDAD": "UMF 11 AMATITAN",
    "ESTRATO UNIDAD": "URBANO",
    "LATITUD": "20.6754",
    "LONGITUD": "-103.8667"
  },
  {
    "NOMBRE DE LA INSTITUCION": "INSTITUTO MEXICANO DEL SEGURO SOCIAL",
    "MUNICIPIO": "AMECA",
    "LOCALIDAD": "AMECA",
    "NOMBRE DE LA UNIDAD": "UMFH 24 AMECA",
    "ESTRATO UNIDAD": "URBANO",
    "LATITUD": "20.5388",
    "LONGITUD": "-104.0446"
  },
  {
    "NOMBRE DE LA INSTITUCION": "INSTITUTO MEXICANO DEL SEGURO SOCIAL",
    "MUNICIPIO": "ARANDAS",
    "LOCALIDAD": "ARANDAS",
    "NOMBRE DE LA UNIDAD": "UMF 44 ARANDAS",
    "ESTRATO UNIDAD": "URBANO",
    "LATITUD": "20.7061",
    "LONGITUD": "-102.3566"
  },
  {
    "NOMBRE DE LA INSTITUCION": "INSTITUTO MEXICANO DEL SEGURO SOCIAL",
    "MUNICIPIO": "EL ARENAL",
    "LOCALIDAD": "EL ARENAL",
    "NOMBRE DE LA UNIDAD": "UMF 12 EL ARENAL",
    "ESTRATO UNIDAD": "URBANO",
    "LATITUD": "20.7757",
    "LONGITUD": "-103.69603"
  },
  {
    "NOMBRE DE LA INSTITUCION": "INSTITUTO MEXICANO DEL SEGURO SOCIAL",
    "MUNICIPIO": "ATOTONILCO EL ALTO",
    "LOCALIDAD": "ATOTONILCO EL ALTO",
    "NOMBRE DE LA UNIDAD": "UMFH 22 ATOTONILCO",
    "ESTRATO UNIDAD": "URBANO",
    "LATITUD": "20.5484",
    "LONGITUD": "-102.5162"
  },
  {
    "NOMBRE DE LA INSTITUCION": "INSTITUTO MEXICANO DEL SEGURO SOCIAL",
    "MUNICIPIO": "AUTLAN DE NAVARRO",
    "LOCALIDAD": "AUTLAN DE NAVARRO",
    "NOMBRE DE LA UNIDAD": "HGZMF 20 AUTLAN NAVARRO",
    "ESTRATO UNIDAD": "URBANO",
    "LATITUD": "19.7721",
    "LONGITUD": "-104.3622"
  },
  {
    "NOMBRE DE LA INSTITUCION": "INSTITUTO MEXICANO DEL SEGURO SOCIAL",
    "MUNICIPIO": "AUTLAN DE NAVARRO",
    "LOCALIDAD": "AUTLAN DE NAVARRO",
    "NOMBRE DE LA UNIDAD": "UMF 37 ING. MELCHOR",
    "ESTRATO UNIDAD": "URBANO",
    "LATITUD": "19.7865",
    "LONGITUD": "-104.2367"
  },
  {
    "NOMBRE DE LA INSTITUCION": "INSTITUTO MEXICANO DEL SEGURO SOCIAL",
    "MUNICIPIO": "AYOTLAN",
    "LOCALIDAD": "AYOTLAN",
    "NOMBRE DE LA UNIDAD": "UMF 66 AYOTLÁN",
    "ESTRATO UNIDAD": "URBANO",
    "LATITUD": "20.5261",
    "LONGITUD": "-102.3272"
  },
  {
    "NOMBRE DE LA INSTITUCION": "INSTITUTO MEXICANO DEL SEGURO SOCIAL",
    "MUNICIPIO": "AYUTLA",
    "LOCALIDAD": "AYUTLA",
    "NOMBRE DE LA UNIDAD": "UMF 71 AYUTLA",
    "ESTRATO UNIDAD": "URBANO",
    "LATITUD": "20.1235",
    "LONGITUD": "-104.3402"
  },
  {
    "NOMBRE DE LA INSTITUCION": "INSTITUTO MEXICANO DEL SEGURO SOCIAL",
    "MUNICIPIO": "LA BARCA",
    "LOCALIDAD": "LA BARCA",
    "NOMBRE DE LA UNIDAD": "UMFH 23 LA BARCA",
    "ESTRATO UNIDAD": "URBANO",
    "LATITUD": "20.2894",
    "LONGITUD": "-102.5516"
  },
  {
    "NOMBRE DE LA INSTITUCION": "INSTITUTO MEXICANO DEL SEGURO SOCIAL",
    "MUNICIPIO": "BOLAÑOS",
    "LOCALIDAD": "BOLAÑOS",
    "NOMBRE DE LA UNIDAD": "UMF 68 BOLAÑOS",
    "ESTRATO UNIDAD": "URBANO",
    "LATITUD": "21.8309",
    "LONGITUD": "-103.7806"
  },
  {
    "NOMBRE DE LA INSTITUCION": "INSTITUTO MEXICANO DEL SEGURO SOCIAL",
    "MUNICIPIO": "CASIMIRO CASTILLO",
    "LOCALIDAD": "LA RESOLANA",
    "NOMBRE DE LA UNIDAD": "HGSMF 28 CASIMIRO CASTILLO",
    "ESTRATO UNIDAD": "URBANO",
    "LATITUD": "19.6025",
    "LONGITUD": "-104.4424"
  },
  {
    "NOMBRE DE LA INSTITUCION": "INSTITUTO MEXICANO DEL SEGURO SOCIAL",
    "MUNICIPIO": "CIHUATLAN",
    "LOCALIDAD": "CIHUATLAN",
    "NOMBRE DE LA UNIDAD": "UMF 80 CIHUATLÁN",
    "ESTRATO UNIDAD": "URBANO",
    "LATITUD": "19.236",
    "LONGITUD": "-104.5718"
  },
  {
    "NOMBRE DE LA INSTITUCION": "INSTITUTO MEXICANO DEL SEGURO SOCIAL",
    "MUNICIPIO": "CIHUATLAN",
    "LOCALIDAD": "SAN PATRICIO (MELAQUE)",
    "NOMBRE DE LA UNIDAD": "UMF 162 MELAQUE",
    "ESTRATO UNIDAD": "URBANO",
    "LATITUD": "19.2234",
    "LONGITUD": "-104.6999"
  },
  {
    "NOMBRE DE LA INSTITUCION": "INSTITUTO MEXICANO DEL SEGURO SOCIAL",
    "MUNICIPIO": "ZAPOTLAN EL GRANDE",
    "LOCALIDAD": "CIUDAD GUZMAN",
    "NOMBRE DE LA UNIDAD": "HGZMF 9 CD. GUZMÁN",
    "ESTRATO UNIDAD": "URBANO",
    "LATITUD": "19.7195",
    "LONGITUD": "-103.4603"
  },
  {
    "NOMBRE DE LA INSTITUCION": "INSTITUTO MEXICANO DEL SEGURO SOCIAL",
    "MUNICIPIO": "COCULA",
    "LOCALIDAD": "COCULA",
    "NOMBRE DE LA UNIDAD": "UMF 72 COCULA",
    "ESTRATO UNIDAD": "URBANO",
    "LATITUD": "20.3636",
    "LONGITUD": "-103.8215"
  },
  {
    "NOMBRE DE LA INSTITUCION": "INSTITUTO MEXICANO DEL SEGURO SOCIAL",
    "MUNICIPIO": "COCULA",
    "LOCALIDAD": "LA SAUCEDA",
    "NOMBRE DE LA UNIDAD": "UMF 25 LA SAUCEDA",
    "ESTRATO UNIDAD": "RURAL",
    "LATITUD": "20.4478",
    "LONGITUD": "-104.0253"
  },
  {
    "NOMBRE DE LA INSTITUCION": "INSTITUTO MEXICANO DEL SEGURO SOCIAL",
    "MUNICIPIO": "COLOTLAN",
    "LOCALIDAD": "COLOTLAN",
    "NOMBRE DE LA UNIDAD": "UMF 60 COLOTLÁN",
    "ESTRATO UNIDAD": "URBANO",
    "LATITUD": "22.1165",
    "LONGITUD": "-103.2674"
  },
  {
    "NOMBRE DE LA INSTITUCION": "INSTITUTO MEXICANO DEL SEGURO SOCIAL",
    "MUNICIPIO": "CHAPALA",
    "LOCALIDAD": "CHAPALA",
    "NOMBRE DE LA UNIDAD": "UMFH 40 CHAPALA",
    "ESTRATO UNIDAD": "URBANO",
    "LATITUD": "20.2914",
    "LONGITUD": "-103.1867"
  },
  {
    "NOMBRE DE LA INSTITUCION": "INSTITUTO MEXICANO DEL SEGURO SOCIAL",
    "MUNICIPIO": "CHAPALA",
    "LOCALIDAD": "ATOTONILQUILLO",
    "NOMBRE DE LA UNIDAD": "UMF 50 ATOTONILQUILLO",
    "ESTRATO UNIDAD": "URBANO",
    "LATITUD": "20.3965",
    "LONGITUD": "-103.1092"
  },
  {
    "NOMBRE DE LA INSTITUCION": "INSTITUTO MEXICANO DEL SEGURO SOCIAL",
    "MUNICIPIO": "DEGOLLADO",
    "LOCALIDAD": "DEGOLLADO",
    "NOMBRE DE LA UNIDAD": "UMF 165 DEGOLLADO",
    "ESTRATO UNIDAD": "URBANO",
    "LATITUD": "20.4531",
    "LONGITUD": "-102.1374"
  },
  {
    "NOMBRE DE LA INSTITUCION": "INSTITUTO MEXICANO DEL SEGURO SOCIAL",
    "MUNICIPIO": "ENCARNACION DE DIAZ",
    "LOCALIDAD": "ENCARNACION DE DIAZ",
    "NOMBRE DE LA UNIDAD": "UMF 84 ENCARNACIÓN DE DÍAZ",
    "ESTRATO UNIDAD": "URBANO",
    "LATITUD": "21.5338216",
    "LONGITUD": "-102.239618"
  },
  {
    "NOMBRE DE LA INSTITUCION": "INSTITUTO MEXICANO DEL SEGURO SOCIAL",
    "MUNICIPIO": "ETZATLAN",
    "LOCALIDAD": "ETZATLAN",
    "NOMBRE DE LA UNIDAD": "UMF 69 ETZATLÁN",
    "ESTRATO UNIDAD": "URBANO",
    "LATITUD": "20.771",
    "LONGITUD": "-104.0778"
  },
  {
    "NOMBRE DE LA INSTITUCION": "INSTITUTO MEXICANO DEL SEGURO SOCIAL",
    "MUNICIPIO": "EL GRULLO",
    "LOCALIDAD": "EL GRULLO",
    "NOMBRE DE LA UNIDAD": "UMF 81 GRULLO",
    "ESTRATO UNIDAD": "URBANO",
    "LATITUD": "19.8103",
    "LONGITUD": "-104.2282"
  },
  {
    "NOMBRE DE LA INSTITUCION": "INSTITUTO MEXICANO DEL SEGURO SOCIAL",
    "MUNICIPIO": "GUADALAJARA",
    "LOCALIDAD": "GUADALAJARA",
    "NOMBRE DE LA UNIDAD": "BS CMN OCCIDENTE",
    "ESTRATO UNIDAD": "URBANO",
    "LATITUD": "20.6845615",
    "LONGITUD": "-103.3268308"
  },
  {
    "NOMBRE DE LA INSTITUCION": "JCIMS000301",
    "MUNICIPIO": "JCIMS000301",
    "LOCALIDAD": "JCIMS000301",
    "NOMBRE DE LA UNIDAD": "JCIMS000301",
    "ESTRATO UNIDAD": "URBANO",
    "LATITUD": "20.6861939",
    "LONGITUD": "-103.3273887"
  },
  {
    "NOMBRE DE LA INSTITUCION": "JCIMS000313",
    "MUNICIPIO": "JCIMS000313",
    "LOCALIDAD": "JCIMS000313",
    "NOMBRE DE LA UNIDAD": "JCIMS000313",
    "ESTRATO UNIDAD": "URBANO",
    "LATITUD": "20.6840008",
    "LONGITUD": "-103.327732"
  },
  {
    "NOMBRE DE LA INSTITUCION": "JCIMS000325",
    "MUNICIPIO": "JCIMS000325",
    "LOCALIDAD": "JCIMS000325",
    "NOMBRE DE LA UNIDAD": "JCIMS000325",
    "ESTRATO UNIDAD": "URBANO",
    "LATITUD": "20.683284",
    "LONGITUD": "-103.3269381"
  },
  {
    "NOMBRE DE LA INSTITUCION": "JCIMS000330",
    "MUNICIPIO": "JCIMS000330",
    "LOCALIDAD": "JCIMS000330",
    "NOMBRE DE LA UNIDAD": "JCIMS000330",
    "ESTRATO UNIDAD": "URBANO",
    "LATITUD": "20.6447",
    "LONGITUD": "-103.3052"
  },
  {
    "NOMBRE DE LA INSTITUCION": "JCIMS000342",
    "MUNICIPIO": "JCIMS000342",
    "LOCALIDAD": "JCIMS000342",
    "NOMBRE DE LA UNIDAD": "JCIMS000342",
    "ESTRATO UNIDAD": "URBANO",
    "LATITUD": "20.6638786",
    "LONGITUD": "-103.3678275"
  },
  {
    "NOMBRE DE LA INSTITUCION": "JCIMS000354",
    "MUNICIPIO": "JCIMS000354",
    "LOCALIDAD": "JCIMS000354",
    "NOMBRE DE LA UNIDAD": "JCIMS000354",
    "ESTRATO UNIDAD": "URBANO",
    "LATITUD": "20.6889",
    "LONGITUD": "-103.30402"
  },
  {
    "NOMBRE DE LA INSTITUCION": "JCIMS000366",
    "MUNICIPIO": "JCIMS000366",
    "LOCALIDAD": "JCIMS000366",
    "NOMBRE DE LA UNIDAD": "JCIMS000366",
    "ESTRATO UNIDAD": "URBANO",
    "LATITUD": "20.6796",
    "LONGITUD": "-103.3629"
  },
  {
    "NOMBRE DE LA INSTITUCION": "JCIMS000371",
    "MUNICIPIO": "JCIMS000371",
    "LOCALIDAD": "JCIMS000371",
    "NOMBRE DE LA UNIDAD": "JCIMS000371",
    "ESTRATO UNIDAD": "URBANO",
    "LATITUD": "20.6475",
    "LONGITUD": "-103.3622"
  },
  {
    "NOMBRE DE LA INSTITUCION": "INSTITUTO MEXICANO DEL SEGURO SOCIAL",
    "MUNICIPIO": "GUADALAJARA",
    "LOCALIDAD": "GUADALAJARA",
    "NOMBRE DE LA UNIDAD": "LABORATORIO CITOLOGÍA EXFOLIATIVA",
    "ESTRATO UNIDAD": "URBANO",
    "LATITUD": "20.6975",
    "LONGITUD": "-103.3493"
  },
  {
    "NOMBRE DE LA INSTITUCION": "INSTITUTO MEXICANO DEL SEGURO SOCIAL",
    "MUNICIPIO": "GUADALAJARA",
    "LOCALIDAD": "GUADALAJARA",
    "NOMBRE DE LA UNIDAD": "UMF 1 GUADALAJARA",
    "ESTRATO UNIDAD": "URBANO",
    "LATITUD": "20.6743",
    "LONGITUD": "-103.3578"
  },
  {
    "NOMBRE DE LA INSTITUCION": "INSTITUTO MEXICANO DEL SEGURO SOCIAL",
    "MUNICIPIO": "GUADALAJARA",
    "LOCALIDAD": "GUADALAJARA",
    "NOMBRE DE LA UNIDAD": "UMF 167 H. PROVINCIA",
    "ESTRATO UNIDAD": "URBANO",
    "LATITUD": "20.6667",
    "LONGITUD": "-103.2947"
  },
  {
    "NOMBRE DE LA INSTITUCION": "INSTITUTO MEXICANO DEL SEGURO SOCIAL",
    "MUNICIPIO": "GUADALAJARA",
    "LOCALIDAD": "GUADALAJARA",
    "NOMBRE DE LA UNIDAD": "UMF 2 GUADALAJARA",
    "ESTRATO UNIDAD": "URBANO",
    "LATITUD": "20.6892901",
    "LONGITUD": "-103.3647989"
  },
  {
    "NOMBRE DE LA INSTITUCION": "INSTITUTO MEXICANO DEL SEGURO SOCIAL",
    "MUNICIPIO": "GUADALAJARA",
    "LOCALIDAD": "GUADALAJARA",
    "NOMBRE DE LA UNIDAD": "UMF 3 GUADALAJARA",
    "ESTRATO UNIDAD": "URBANO",
    "LATITUD": "20.6851151",
    "LONGITUD": "-103.3271419"
  },
  {
    "NOMBRE DE LA INSTITUCION": "INSTITUTO MEXICANO DEL SEGURO SOCIAL",
    "MUNICIPIO": "GUADALAJARA",
    "LOCALIDAD": "GUADALAJARA",
    "NOMBRE DE LA UNIDAD": "UMF 34 GUADALAJARA",
    "ESTRATO UNIDAD": "URBANO",
    "LATITUD": "20.6382759",
    "LONGITUD": "-103.3764347"
  },
  {
    "NOMBRE DE LA INSTITUCION": "INSTITUTO MEXICANO DEL SEGURO SOCIAL",
    "MUNICIPIO": "GUADALAJARA",
    "LOCALIDAD": "GUADALAJARA",
    "NOMBRE DE LA UNIDAD": "UMF 4 ATEMAJAC",
    "ESTRATO UNIDAD": "URBANO",
    "LATITUD": "20.7128385",
    "LONGITUD": "-103.3562091"
  },
  {
    "NOMBRE DE LA INSTITUCION": "INSTITUTO MEXICANO DEL SEGURO SOCIAL",
    "MUNICIPIO": "GUADALAJARA",
    "LOCALIDAD": "GUADALAJARA",
    "NOMBRE DE LA UNIDAD": "UMF 48 GUADALAJARA",
    "ESTRATO UNIDAD": "URBANO",
    "LATITUD": "20.6898668",
    "LONGITUD": "-103.3019632"
  },
  {
    "NOMBRE DE LA INSTITUCION": "INSTITUTO MEXICANO DEL SEGURO SOCIAL",
    "MUNICIPIO": "GUADALAJARA",
    "LOCALIDAD": "GUADALAJARA",
    "NOMBRE DE LA UNIDAD": "UMF 49 GUADALAJARA",
    "ESTRATO UNIDAD": "URBANO",
    "LATITUD": "20.6638218",
    "LONGITUD": "-103.3349704"
  },
  {
    "NOMBRE DE LA INSTITUCION": "INSTITUTO MEXICANO DEL SEGURO SOCIAL",
    "MUNICIPIO": "GUADALAJARA",
    "LOCALIDAD": "GUADALAJARA",
    "NOMBRE DE LA UNIDAD": "UMF 51 GUADALAJARA",
    "ESTRATO UNIDAD": "URBANO",
    "LATITUD": "20.6979338",
    "LONGITUD": "-103.3496538"
  },
  {
    "NOMBRE DE LA INSTITUCION": "INSTITUTO MEXICANO DEL SEGURO SOCIAL",
    "MUNICIPIO": "GUADALAJARA",
    "LOCALIDAD": "GUADALAJARA",
    "NOMBRE DE LA UNIDAD": "UMF-UMAA 52 GUADALAJARA",
    "ESTRATO UNIDAD": "URBANO",
    "LATITUD": "20.6559705",
    "LONGITUD": "-103.328467"
  },
  {
    "NOMBRE DE LA INSTITUCION": "INSTITUTO MEXICANO DEL SEGURO SOCIAL",
    "MUNICIPIO": "GUADALAJARA",
    "LOCALIDAD": "GUADALAJARA",
    "NOMBRE DE LA UNIDAD": "UMF 55 GUADALAJARA",
    "ESTRATO UNIDAD": "URBANO",
    "LATITUD": "20.17",
    "LONGITUD": "-103.21"
  },
  {
    "NOMBRE DE LA INSTITUCION": "INSTITUTO MEXICANO DEL SEGURO SOCIAL",
    "MUNICIPIO": "GUADALAJARA",
    "LOCALIDAD": "GUADALAJARA",
    "NOMBRE DE LA UNIDAD": "UMF 78 GUADALAJARA",
    "ESTRATO UNIDAD": "URBANO",
    "LATITUD": "20.6516544",
    "LONGITUD": "-103.3006543"
  },
  {
    "NOMBRE DE LA INSTITUCION": "INSTITUTO MEXICANO DEL SEGURO SOCIAL",
    "MUNICIPIO": "GUADALAJARA",
    "LOCALIDAD": "GUADALAJARA",
    "NOMBRE DE LA UNIDAD": "UMF 79 GUADALAJARA",
    "ESTRATO UNIDAD": "URBANO",
    "LATITUD": "20.6915346",
    "LONGITUD": "-103.3520454"
  },
  {
    "NOMBRE DE LA INSTITUCION": "INSTITUTO MEXICANO DEL SEGURO SOCIAL",
    "MUNICIPIO": "GUADALAJARA",
    "LOCALIDAD": "GUADALAJARA",
    "NOMBRE DE LA UNIDAD": "UMF 88 GUADALAJARA",
    "ESTRATO UNIDAD": "URBANO",
    "LATITUD": "20.6232169",
    "LONGITUD": "-103.3929464"
  },
  {
    "NOMBRE DE LA INSTITUCION": "INSTITUTO MEXICANO DEL SEGURO SOCIAL",
    "MUNICIPIO": "GUADALAJARA",
    "LOCALIDAD": "GUADALAJARA",
    "NOMBRE DE LA UNIDAD": "UMF 91 EL FRESNO",
    "ESTRATO UNIDAD": "URBANO",
    "LATITUD": "20.6577239",
    "LONGITUD": "-103.375584"
  },
  {
    "NOMBRE DE LA INSTITUCION": "INSTITUTO MEXICANO DEL SEGURO SOCIAL",
    "MUNICIPIO": "GUADALAJARA",
    "LOCALIDAD": "GUADALAJARA",
    "NOMBRE DE LA UNIDAD": "UMF 92 MIRAVALLE",
    "ESTRATO UNIDAD": "URBANO",
    "LATITUD": "20.6146396",
    "LONGITUD": "-103.3429925"
  },
  {
    "NOMBRE DE LA INSTITUCION": "INSTITUTO MEXICANO DEL SEGURO SOCIAL",
    "MUNICIPIO": "LA HUERTA",
    "LOCALIDAD": "LA HUERTA",
    "NOMBRE DE LA UNIDAD": "UMF 83 LA HUERTA",
    "ESTRATO UNIDAD": "URBANO",
    "LATITUD": "19.4878259",
    "LONGITUD": "-104.6344444"
  },
  {
    "NOMBRE DE LA INSTITUCION": "INSTITUTO MEXICANO DEL SEGURO SOCIAL",
    "MUNICIPIO": "LA HUERTA",
    "LOCALIDAD": "PUEBLO CAREYES",
    "NOMBRE DE LA UNIDAD": "UMF 70 CAREYES",
    "ESTRATO UNIDAD": "RURAL",
    "LATITUD": "19.443684",
    "LONGITUD": "-105.0233066"
  },
  {
    "NOMBRE DE LA INSTITUCION": "INSTITUTO MEXICANO DEL SEGURO SOCIAL",
    "MUNICIPIO": "IXTLAHUACAN DEL RIO",
    "LOCALIDAD": "IXTLAHUACAN DEL RIO",
    "NOMBRE DE LA UNIDAD": "UMF 57 IXTLAHUACAN",
    "ESTRATO UNIDAD": "URBANO",
    "LATITUD": "20.8637569",
    "LONGITUD": "-103.2361364"
  },
  {
    "NOMBRE DE LA INSTITUCION": "INSTITUTO MEXICANO DEL SEGURO SOCIAL",
    "MUNICIPIO": "JALOSTOTITLAN",
    "LOCALIDAD": "JALOSTOTITLAN",
    "NOMBRE DE LA UNIDAD": "UMF 85 JALOSTITLÁN",
    "ESTRATO UNIDAD": "URBANO",
    "LATITUD": "21.15722",
    "LONGITUD": "-102.4633908"
  },
  {
    "NOMBRE DE LA INSTITUCION": "INSTITUTO MEXICANO DEL SEGURO SOCIAL",
    "MUNICIPIO": "JAMAY",
    "LOCALIDAD": "JAMAY",
    "NOMBRE DE LA UNIDAD": "UMF 100 JAMAY",
    "ESTRATO UNIDAD": "URBANO",
    "LATITUD": "20.2927265",
    "LONGITUD": "-102.7125502"
  },
  {
    "NOMBRE DE LA INSTITUCION": "INSTITUTO MEXICANO DEL SEGURO SOCIAL",
    "MUNICIPIO": "JOCOTEPEC",
    "LOCALIDAD": "JOCOTEPEC",
    "NOMBRE DE LA UNIDAD": "UMF 58 JOCOTEPEC",
    "ESTRATO UNIDAD": "URBANO",
    "LATITUD": "20.2810541",
    "LONGITUD": "-103.4338906"
  },
  {
    "NOMBRE DE LA INSTITUCION": "INSTITUTO MEXICANO DEL SEGURO SOCIAL",
    "MUNICIPIO": "LAGOS DE MORENO",
    "LOCALIDAD": "LAGOS DE MORENO",
    "NOMBRE DE LA UNIDAD": "UMF 177 LAGOS DE MORENO",
    "ESTRATO UNIDAD": "URBANO",
    "LATITUD": "21.3584777",
    "LONGITUD": "-101.9277173"
  },
  {
    "NOMBRE DE LA INSTITUCION": "INSTITUTO MEXICANO DEL SEGURO SOCIAL",
    "MUNICIPIO": "MAGDALENA",
    "LOCALIDAD": "MAGDALENA",
    "NOMBRE DE LA UNIDAD": "UMF 97 MAGDALENA",
    "ESTRATO UNIDAD": "URBANO",
    "LATITUD": "20.9105499",
    "LONGITUD": "-103.9720258"
  },
  {
    "NOMBRE DE LA INSTITUCION": "INSTITUTO MEXICANO DEL SEGURO SOCIAL",
    "MUNICIPIO": "MASCOTA",
    "LOCALIDAD": "MASCOTA",
    "NOMBRE DE LA UNIDAD": "UMF 96 MASCOTA",
    "ESTRATO UNIDAD": "URBANO",
    "LATITUD": "20.5213925",
    "LONGITUD": "-104.7864354"
  },
  {
    "NOMBRE DE LA INSTITUCION": "INSTITUTO MEXICANO DEL SEGURO SOCIAL",
    "MUNICIPIO": "MAZAMITLA",
    "LOCALIDAD": "MAZAMITLA",
    "NOMBRE DE LA UNIDAD": "UMF 61 MASAMITLA",
    "ESTRATO UNIDAD": "URBANO",
    "LATITUD": "19.9214959",
    "LONGITUD": "-103.0165207"
  },
  {
    "NOMBRE DE LA INSTITUCION": "INSTITUTO MEXICANO DEL SEGURO SOCIAL",
    "MUNICIPIO": "OCOTLAN",
    "LOCALIDAD": "OCOTLAN",
    "NOMBRE DE LA UNIDAD": "HGZMF 6 OCOTLÁN",
    "ESTRATO UNIDAD": "URBANO",
    "LATITUD": "20.3553",
    "LONGITUD": "-102.775"
  },
  {
    "NOMBRE DE LA INSTITUCION": "INSTITUTO MEXICANO DEL SEGURO SOCIAL",
    "MUNICIPIO": "OCOTLAN",
    "LOCALIDAD": "OCOTLAN",
    "NOMBRE DE LA UNIDAD": "UMF 169 OCOTLÁN",
    "ESTRATO UNIDAD": "URBANO",
    "LATITUD": "20.3474511",
    "LONGITUD": "-102.7703708"
  },
  {
    "NOMBRE DE LA INSTITUCION": "INSTITUTO MEXICANO DEL SEGURO SOCIAL",
    "MUNICIPIO": "PIHUAMO",
    "LOCALIDAD": "PIHUAMO",
    "NOMBRE DE LA UNIDAD": "UMFH 13 PIHUAMO",
    "ESTRATO UNIDAD": "URBANO",
    "LATITUD": "19.2539918",
    "LONGITUD": "-103.3794504"
  },
  {
    "NOMBRE DE LA INSTITUCION": "INSTITUTO MEXICANO DEL SEGURO SOCIAL",
    "MUNICIPIO": "PONCITLAN",
    "LOCALIDAD": "PONCITLAN",
    "NOMBRE DE LA UNIDAD": "UMF 95 PONCITLÁN",
    "ESTRATO UNIDAD": "URBANO",
    "LATITUD": "20.3799068",
    "LONGITUD": "-102.924343"
  },
  {
    "NOMBRE DE LA INSTITUCION": "INSTITUTO MEXICANO DEL SEGURO SOCIAL",
    "MUNICIPIO": "PUERTO VALLARTA",
    "LOCALIDAD": "PUERTO VALLARTA",
    "NOMBRE DE LA UNIDAD": "HGZ 42 PTO. VALLARTA",
    "ESTRATO UNIDAD": "URBANO",
    "LATITUD": "20.6376",
    "LONGITUD": "-105.232"
  },
  {
    "NOMBRE DE LA INSTITUCION": "INSTITUTO MEXICANO DEL SEGURO SOCIAL",
    "MUNICIPIO": "PUERTO VALLARTA",
    "LOCALIDAD": "PUERTO VALLARTA",
    "NOMBRE DE LA UNIDAD": "UMF 170 DEL MAR",
    "ESTRATO UNIDAD": "URBANO",
    "LATITUD": "20.6537377",
    "LONGITUD": "-105.2348891"
  },
  {
    "NOMBRE DE LA INSTITUCION": "INSTITUTO MEXICANO DEL SEGURO SOCIAL",
    "MUNICIPIO": "EL SALTO",
    "LOCALIDAD": "EL SALTO",
    "NOMBRE DE LA UNIDAD": "UMFH 5 EL SALTO",
    "ESTRATO UNIDAD": "URBANO",
    "LATITUD": "20.5148562",
    "LONGITUD": "-103.1782275"
  },
  {
    "NOMBRE DE LA INSTITUCION": "INSTITUTO MEXICANO DEL SEGURO SOCIAL",
    "MUNICIPIO": "SAN JUAN DE LOS LAGOS",
    "LOCALIDAD": "SAN JUAN DE LOS LAGOS",
    "NOMBRE DE LA UNIDAD": "UMF 41 S. JUAN LAGOS",
    "ESTRATO UNIDAD": "URBANO",
    "LATITUD": "21.2502071",
    "LONGITUD": "-102.3281282"
  },
  {
    "NOMBRE DE LA INSTITUCION": "INSTITUTO MEXICANO DEL SEGURO SOCIAL",
    "MUNICIPIO": "SAN MARTIN DE BOLAÑOS",
    "LOCALIDAD": "SAN MARTIN DE BOLAÑOS",
    "NOMBRE DE LA UNIDAD": "UMF 106 SAN MARTÍN",
    "ESTRATO UNIDAD": "URBANO",
    "LATITUD": "21.6820656",
    "LONGITUD": "-103.8162338"
  },
  {
    "NOMBRE DE LA INSTITUCION": "INSTITUTO MEXICANO DEL SEGURO SOCIAL",
    "MUNICIPIO": "SAN MARTIN DE BOLAÑOS",
    "LOCALIDAD": "SAN MARTIN DE BOLAÑOS",
    "NOMBRE DE LA UNIDAD": "UNIDAD DE MEDICINA FAMILIAR NO. 160",
    "ESTRATO UNIDAD": "URBANO"
  },
  {
    "NOMBRE DE LA INSTITUCION": "INSTITUTO MEXICANO DEL SEGURO SOCIAL",
    "MUNICIPIO": "SAN MARTIN HIDALGO",
    "LOCALIDAD": "SAN MARTIN HIDALGO",
    "NOMBRE DE LA UNIDAD": "UMF 73 MARTÍN HIDALGO",
    "ESTRATO UNIDAD": "URBANO",
    "LATITUD": "20.4334021",
    "LONGITUD": "-103.9323064"
  },
  {
    "NOMBRE DE LA INSTITUCION": "INSTITUTO MEXICANO DEL SEGURO SOCIAL",
    "MUNICIPIO": "SAN MARTIN HIDALGO",
    "LOCALIDAD": "BUENAVISTA",
    "NOMBRE DE LA UNIDAD": "UMF 38 BUENA VISTA",
    "ESTRATO UNIDAD": "RURAL",
    "LATITUD": "20.5667601",
    "LONGITUD": "-103.8551098"
  },
  {
    "NOMBRE DE LA INSTITUCION": "INSTITUTO MEXICANO DEL SEGURO SOCIAL",
    "MUNICIPIO": "SAN MIGUEL EL ALTO",
    "LOCALIDAD": "SAN MIGUEL EL ALTO",
    "NOMBRE DE LA UNIDAD": "UMF 86 S. MIGUEL ALTO",
    "ESTRATO UNIDAD": "URBANO",
    "LATITUD": "21.0304133",
    "LONGITUD": "-102.4109977"
  },
  {
    "NOMBRE DE LA INSTITUCION": "INSTITUTO MEXICANO DEL SEGURO SOCIAL",
    "MUNICIPIO": "GOMEZ FARIAS",
    "LOCALIDAD": "SAN SEBASTIAN DEL SUR",
    "NOMBRE DE LA UNIDAD": "UMF 114 GÓMEZ FARÍAS",
    "ESTRATO UNIDAD": "URBANO",
    "LATITUD": "19.790916",
    "LONGITUD": "-103.4762719"
  },
  {
    "NOMBRE DE LA INSTITUCION": "INSTITUTO MEXICANO DEL SEGURO SOCIAL",
    "MUNICIPIO": "SAYULA",
    "LOCALIDAD": "SAYULA",
    "NOMBRE DE LA UNIDAD": "UMF 62 SAYULA",
    "ESTRATO UNIDAD": "URBANO",
    "LATITUD": "19.8847403",
    "LONGITUD": "-103.5892948"
  },
  {
    "NOMBRE DE LA INSTITUCION": "INSTITUTO MEXICANO DEL SEGURO SOCIAL",
    "MUNICIPIO": "TALA",
    "LOCALIDAD": "TALA",
    "NOMBRE DE LA UNIDAD": "HGZMF 26 TALA",
    "ESTRATO UNIDAD": "URBANO",
    "LATITUD": "20.6525731",
    "LONGITUD": "-103.7076508"
  },
  {
    "NOMBRE DE LA INSTITUCION": "INSTITUTO MEXICANO DEL SEGURO SOCIAL",
    "MUNICIPIO": "TALPA DE ALLENDE",
    "LOCALIDAD": "TALPA DE ALLENDE",
    "NOMBRE DE LA UNIDAD": "UMF 74 TALPA ALLENDE",
    "ESTRATO UNIDAD": "URBANO",
    "LATITUD": "20.3893377",
    "LONGITUD": "-104.8224967"
  },
  {
    "NOMBRE DE LA INSTITUCION": "INSTITUTO MEXICANO DEL SEGURO SOCIAL",
    "MUNICIPIO": "TAMAZULA DE GORDIANO",
    "LOCALIDAD": "TAMAZULA DE GORDIANO",
    "NOMBRE DE LA UNIDAD": "HGSMF 15 TAMAZULA",
    "ESTRATO UNIDAD": "URBANO",
    "LATITUD": "19.69289",
    "LONGITUD": "-103.2371691"
  },
  {
    "NOMBRE DE LA INSTITUCION": "INSTITUTO MEXICANO DEL SEGURO SOCIAL",
    "MUNICIPIO": "TAMAZULA DE GORDIANO",
    "LOCALIDAD": "LA GARITA",
    "NOMBRE DE LA UNIDAD": "UMF 36 LA GARITA",
    "ESTRATO UNIDAD": "RURAL",
    "LATITUD": "19.7742809",
    "LONGITUD": "-103.1228488"
  },
  {
    "NOMBRE DE LA INSTITUCION": "INSTITUTO MEXICANO DEL SEGURO SOCIAL",
    "MUNICIPIO": "TAMAZULA DE GORDIANO",
    "LOCALIDAD": "VISTA HERMOSA (SANTA CRUZ DEL CORTIJO)",
    "NOMBRE DE LA UNIDAD": "UMF 35 VISTA HERMOSA",
    "ESTRATO UNIDAD": "URBANO",
    "LATITUD": "19.6876826",
    "LONGITUD": "-103.3392387"
  },
  {
    "NOMBRE DE LA INSTITUCION": "INSTITUTO MEXICANO DEL SEGURO SOCIAL",
    "MUNICIPIO": "TAPALPA",
    "LOCALIDAD": "TAPALPA",
    "NOMBRE DE LA UNIDAD": "UMF 64 TAPALAPA",
    "ESTRATO UNIDAD": "URBANO",
    "LATITUD": "19.9408589",
    "LONGITUD": "-103.7541836"
  },
  {
    "NOMBRE DE LA INSTITUCION": "INSTITUTO MEXICANO DEL SEGURO SOCIAL",
    "MUNICIPIO": "TECALITLAN",
    "LOCALIDAD": "TECALITLAN",
    "NOMBRE DE LA UNIDAD": "UMFH 16 TECALITLÁN",
    "ESTRATO UNIDAD": "URBANO",
    "LATITUD": "19.4754178",
    "LONGITUD": "-103.3031952"
  },
  {
    "NOMBRE DE LA INSTITUCION": "INSTITUTO MEXICANO DEL SEGURO SOCIAL",
    "MUNICIPIO": "TECOLOTLAN",
    "LOCALIDAD": "TECOLOTLAN",
    "NOMBRE DE LA UNIDAD": "UMF 75 TECOLOTLÁN",
    "ESTRATO UNIDAD": "URBANO",
    "LATITUD": "20.1936299",
    "LONGITUD": "-104.0424281"
  },
  {
    "NOMBRE DE LA INSTITUCION": "INSTITUTO MEXICANO DEL SEGURO SOCIAL",
    "MUNICIPIO": "TECHALUTA DE MONTENEGRO",
    "LOCALIDAD": "TECHALUTA DE MONTENEGRO",
    "NOMBRE DE LA UNIDAD": "UNIDAD DE MEDICINA FAMILIAR NO. 65",
    "ESTRATO UNIDAD": "URBANO",
    "LATITUD": "20.0699",
    "LONGITUD": "-103.5483"
  },
  {
    "NOMBRE DE LA INSTITUCION": "INSTITUTO MEXICANO DEL SEGURO SOCIAL",
    "MUNICIPIO": "TEOCALTICHE",
    "LOCALIDAD": "TEOCALTICHE",
    "NOMBRE DE LA UNIDAD": "UMF 87 TEOCALTICHE",
    "ESTRATO UNIDAD": "URBANO",
    "LATITUD": "21.4454695",
    "LONGITUD": "-102.5724917"
  },
  {
    "NOMBRE DE LA INSTITUCION": "INSTITUTO MEXICANO DEL SEGURO SOCIAL",
    "MUNICIPIO": "TEOCUITATLAN DE CORONA",
    "LOCALIDAD": "TEOCUITATLAN DE CORONA",
    "NOMBRE DE LA UNIDAD": "UMF 76 TEOCUITATLÁN",
    "ESTRATO UNIDAD": "URBANO",
    "LATITUD": "20.0906847",
    "LONGITUD": "-103.3818528"
  },
  {
    "NOMBRE DE LA INSTITUCION": "INSTITUTO MEXICANO DEL SEGURO SOCIAL",
    "MUNICIPIO": "TEPATITLAN DE MORELOS",
    "LOCALIDAD": "TEPATITLAN DE MORELOS",
    "NOMBRE DE LA UNIDAD": "HGZ 21 TEPATITLÁN",
    "ESTRATO UNIDAD": "URBANO",
    "LATITUD": "20.805",
    "LONGITUD": "-102.777"
  },
  {
    "NOMBRE DE LA INSTITUCION": "INSTITUTO MEXICANO DEL SEGURO SOCIAL",
    "MUNICIPIO": "TEPATITLAN DE MORELOS",
    "LOCALIDAD": "TEPATITLAN DE MORELOS",
    "NOMBRE DE LA UNIDAD": "UMF 159 JESÚS MARÍA",
    "ESTRATO UNIDAD": "URBANO",
    "LATITUD": "20.8191124",
    "LONGITUD": "-102.7669054"
  },
  {
    "NOMBRE DE LA INSTITUCION": "INSTITUTO MEXICANO DEL SEGURO SOCIAL",
    "MUNICIPIO": "TEPATITLAN DE MORELOS",
    "LOCALIDAD": "TEPATITLAN DE MORELOS",
    "NOMBRE DE LA UNIDAD": "UMF 168 TEPATITLÁN",
    "ESTRATO UNIDAD": "URBANO",
    "LATITUD": "20.8078064",
    "LONGITUD": "-102.7589059"
  },
  {
    "NOMBRE DE LA INSTITUCION": "INSTITUTO MEXICANO DEL SEGURO SOCIAL",
    "MUNICIPIO": "TEQUILA",
    "LOCALIDAD": "TEQUILA",
    "NOMBRE DE LA UNIDAD": "UMFH 10 TEQUILA",
    "ESTRATO UNIDAD": "URBANO",
    "LATITUD": "20.8824229",
    "LONGITUD": "-103.8336146"
  },
  {
    "NOMBRE DE LA INSTITUCION": "INSTITUTO MEXICANO DEL SEGURO SOCIAL",
    "MUNICIPIO": "TLAJOMULCO DE ZUÑIGA",
    "LOCALIDAD": "TLAJOMULCO DE ZUÑIGA",
    "NOMBRE DE LA UNIDAD": "UMF 59 TLAJOMULCO",
    "ESTRATO UNIDAD": "URBANO",
    "LATITUD": "20.4691215",
    "LONGITUD": "-103.4436062"
  },
  {
    "NOMBRE DE LA INSTITUCION": "INSTITUTO MEXICANO DEL SEGURO SOCIAL",
    "MUNICIPIO": "SAN PEDRO TLAQUEPAQUE",
    "LOCALIDAD": "TLAQUEPAQUE",
    "NOMBRE DE LA UNIDAD": "UMF 54 TLAQUEPAQUE",
    "ESTRATO UNIDAD": "URBANO",
    "LATITUD": "20.6340729",
    "LONGITUD": "-103.2901624"
  },
  {
    "NOMBRE DE LA INSTITUCION": "INSTITUTO MEXICANO DEL SEGURO SOCIAL",
    "MUNICIPIO": "SAN PEDRO TLAQUEPAQUE",
    "LOCALIDAD": "TLAQUEPAQUE",
    "NOMBRE DE LA UNIDAD": "UMF 39 TLAQUEPAQUE",
    "ESTRATO UNIDAD": "URBANO",
    "LATITUD": "20.626223",
    "LONGITUD": "-103.321946"
  },
  {
    "NOMBRE DE LA INSTITUCION": "INSTITUTO MEXICANO DEL SEGURO SOCIAL",
    "MUNICIPIO": "SAN PEDRO TLAQUEPAQUE",
    "LOCALIDAD": "TLAQUEPAQUE",
    "NOMBRE DE LA UNIDAD": "UNIDAD DE MEDICINA FAMILIAR NO. 98",
    "ESTRATO UNIDAD": "URBANO",
    "LATITUD": "20.6818652",
    "LONGITUD": "-103.8501531"
  },
  {
    "NOMBRE DE LA INSTITUCION": "INSTITUTO MEXICANO DEL SEGURO SOCIAL",
    "MUNICIPIO": "TOMATLAN",
    "LOCALIDAD": "TOMATLAN",
    "NOMBRE DE LA UNIDAD": "UMF 43 TOMATLÁN",
    "ESTRATO UNIDAD": "URBANO",
    "LATITUD": "19.9344569",
    "LONGITUD": "-105.2529886"
  },
  {
    "NOMBRE DE LA INSTITUCION": "INSTITUTO MEXICANO DEL SEGURO SOCIAL",
    "MUNICIPIO": "TONALA",
    "LOCALIDAD": "TONALA",
    "NOMBRE DE LA UNIDAD": "UMF 93 TONALÁ",
    "ESTRATO UNIDAD": "URBANO",
    "LATITUD": "20.6186052",
    "LONGITUD": "-103.2478389"
  },
  {
    "NOMBRE DE LA INSTITUCION": "INSTITUTO MEXICANO DEL SEGURO SOCIAL",
    "MUNICIPIO": "TONILA",
    "LOCALIDAD": "SAN MARCOS",
    "NOMBRE DE LA UNIDAD": "UMF 33 S. MARCOS",
    "ESTRATO UNIDAD": "URBANO",
    "LATITUD": "19.4448626",
    "LONGITUD": "-103.5064047"
  },
  {
    "NOMBRE DE LA INSTITUCION": "INSTITUTO MEXICANO DEL SEGURO SOCIAL",
    "MUNICIPIO": "TOTOTLAN",
    "LOCALIDAD": "TOTOTLAN",
    "NOMBRE DE LA UNIDAD": "UMF 67 TOTOTLÁN",
    "ESTRATO UNIDAD": "URBANO",
    "LATITUD": "20.5401867",
    "LONGITUD": "-102.7903387"
  },
  {
    "NOMBRE DE LA INSTITUCION": "INSTITUTO MEXICANO DEL SEGURO SOCIAL",
    "MUNICIPIO": "TUXPAN",
    "LOCALIDAD": "TUXPAN",
    "NOMBRE DE LA UNIDAD": "UMFH 19 TUXPAN",
    "ESTRATO UNIDAD": "URBANO",
    "LATITUD": "19.5567951",
    "LONGITUD": "-103.3846101"
  },
  {
    "NOMBRE DE LA INSTITUCION": "INSTITUTO MEXICANO DEL SEGURO SOCIAL",
    "MUNICIPIO": "UNION DE SAN ANTONIO",
    "LOCALIDAD": "UNION DE SAN ANTONIO",
    "NOMBRE DE LA UNIDAD": "UMF 82 UNIÓN DE TULA",
    "ESTRATO UNIDAD": "URBANO",
    "LATITUD": "19.9617826",
    "LONGITUD": "-104.2639187"
  },
  {
    "NOMBRE DE LA INSTITUCION": "INSTITUTO MEXICANO DEL SEGURO SOCIAL",
    "MUNICIPIO": "UNION DE SAN ANTONIO",
    "LOCALIDAD": "UNION DE SAN ANTONIO",
    "NOMBRE DE LA UNIDAD": "UNIDAD DE MEDICINA FAMILIAR NO. 17",
    "ESTRATO UNIDAD": "URBANO",
    "LATITUD": "19.5303",
    "LONGITUD": "-103.438"
  },
  {
    "NOMBRE DE LA INSTITUCION": "INSTITUTO MEXICANO DEL SEGURO SOCIAL",
    "MUNICIPIO": "SAN GABRIEL",
    "LOCALIDAD": "SAN GABRIEL",
    "NOMBRE DE LA UNIDAD": "UMF 63 SAN GABRIEL",
    "ESTRATO UNIDAD": "URBANO",
    "LATITUD": "19.7440046",
    "LONGITUD": "-103.7710842"
  },
  {
    "NOMBRE DE LA INSTITUCION": "INSTITUTO MEXICANO DEL SEGURO SOCIAL",
    "MUNICIPIO": "VILLA CORONA",
    "LOCALIDAD": "VILLA CORONA",
    "NOMBRE DE LA UNIDAD": "HGSMF 27 VILLA CORONA",
    "ESTRATO UNIDAD": "URBANO",
    "LATITUD": "20.4136301",
    "LONGITUD": "-103.6634588"
  },
  {
    "NOMBRE DE LA INSTITUCION": "INSTITUTO MEXICANO DEL SEGURO SOCIAL",
    "MUNICIPIO": "VILLA CORONA",
    "LOCALIDAD": "ESTIPAC",
    "NOMBRE DE LA UNIDAD": "UMF 29 ESTIPAC",
    "ESTRATO UNIDAD": "URBANO",
    "LATITUD": "20.3638093",
    "LONGITUD": "-103.7269788"
  },
  {
    "NOMBRE DE LA INSTITUCION": "INSTITUTO MEXICANO DEL SEGURO SOCIAL",
    "MUNICIPIO": "YAHUALICA DE GONZALEZ GALLO",
    "LOCALIDAD": "YAHUALICA DE GONZALEZ GALLO",
    "NOMBRE DE LA UNIDAD": "UMF 94 YAHUALICA",
    "ESTRATO UNIDAD": "URBANO",
    "LATITUD": "21.1778904",
    "LONGITUD": "-102.8844065"
  },
  {
    "NOMBRE DE LA INSTITUCION": "INSTITUTO MEXICANO DEL SEGURO SOCIAL",
    "MUNICIPIO": "ZACOALCO DE TORRES",
    "LOCALIDAD": "ZACOALCO DE TORRES",
    "NOMBRE DE LA UNIDAD": "UMF 77 ZACOALCO",
    "ESTRATO UNIDAD": "URBANO",
    "LATITUD": "20.2218542",
    "LONGITUD": "-103.5745641"
  },
  {
    "NOMBRE DE LA INSTITUCION": "INSTITUTO MEXICANO DEL SEGURO SOCIAL",
    "MUNICIPIO": "ZAPOPAN",
    "LOCALIDAD": "ZAPOPAN",
    "NOMBRE DE LA UNIDAD": "CCSM 1 OBLATOS",
    "ESTRATO UNIDAD": "URBANO",
    "LATITUD": "20.7218751",
    "LONGITUD": "-103.3866441"
  },
  {
    "NOMBRE DE LA INSTITUCION": "INSTITUTO MEXICANO DEL SEGURO SOCIAL",
    "MUNICIPIO": "ZAPOPAN",
    "LOCALIDAD": "ZAPOPAN",
    "NOMBRE DE LA UNIDAD": "UMF 171 ZAPOPAN",
    "ESTRATO UNIDAD": "URBANO",
    "LATITUD": "20.6307253",
    "LONGITUD": "-103.4168672"
  },
  {
    "NOMBRE DE LA INSTITUCION": "INSTITUTO MEXICANO DEL SEGURO SOCIAL",
    "MUNICIPIO": "ZAPOPAN",
    "LOCALIDAD": "ZAPOPAN",
    "NOMBRE DE LA UNIDAD": "UNIDAD DE MEDICINA FAMILIAR NO. 32",
    "ESTRATO UNIDAD": "URBANO",
    "LATITUD": "20.7203",
    "LONGITUD": "-103.392"
  },
  {
    "NOMBRE DE LA INSTITUCION": "INSTITUTO MEXICANO DEL SEGURO SOCIAL",
    "MUNICIPIO": "ZAPOPAN",
    "LOCALIDAD": "ZAPOPAN",
    "NOMBRE DE LA UNIDAD": "UMF 53 ZAPOPAN",
    "ESTRATO UNIDAD": "URBANO",
    "LATITUD": "20.7217403",
    "LONGITUD": "-103.3879262"
  },
  {
    "NOMBRE DE LA INSTITUCION": "INSTITUTO MEXICANO DEL SEGURO SOCIAL",
    "MUNICIPIO": "ZAPOPAN",
    "LOCALIDAD": "ZAPOPAN",
    "NOMBRE DE LA UNIDAD": "UMF 8 EXPERIENCIA",
    "ESTRATO UNIDAD": "URBANO",
    "LATITUD": "20.728889",
    "LONGITUD": "-103.336204"
  },
  {
    "NOMBRE DE LA INSTITUCION": "INSTITUTO MEXICANO DEL SEGURO SOCIAL",
    "MUNICIPIO": "ZAPOTILTIC",
    "LOCALIDAD": "ZAPOTILTIC",
    "NOMBRE DE LA UNIDAD": "UMFH 18 ZAPOTILTIC",
    "ESTRATO UNIDAD": "URBANO",
    "LATITUD": "19.6287059",
    "LONGITUD": "-103.4136718"
  },
  {
    "NOMBRE DE LA INSTITUCION": "INSTITUTO MEXICANO DEL SEGURO SOCIAL",
    "MUNICIPIO": "ZAPOTLANEJO",
    "LOCALIDAD": "ZAPOTLANEJO",
    "NOMBRE DE LA UNIDAD": "UMF 47 ZAPOTLANEJO",
    "ESTRATO UNIDAD": "URBANO",
    "LATITUD": "20.6219776",
    "LONGITUD": "-103.0559751"
  },
  {
    "NOMBRE DE LA INSTITUCION": "INSTITUTO MEXICANO DEL SEGURO SOCIAL",
    "MUNICIPIO": "GUADALAJARA",
    "LOCALIDAD": "GUADALAJARA",
    "NOMBRE DE LA UNIDAD": "UNIDAD DE MEDICINA FAMILIAR NO. 137",
    "ESTRATO UNIDAD": "URBANO"
  },
  {
    "NOMBRE DE LA INSTITUCION": "INSTITUTO MEXICANO DEL SEGURO SOCIAL",
    "MUNICIPIO": "UNION DE SAN ANTONIO",
    "LOCALIDAD": "UNION DE SAN ANTONIO",
    "NOMBRE DE LA UNIDAD": "UMF 137 ANTONIO",
    "ESTRATO UNIDAD": "URBANO",
    "LATITUD": "21.1292755",
    "LONGITUD": "-102.0062345"
  },
  {
    "NOMBRE DE LA INSTITUCION": "INSTITUTO MEXICANO DEL SEGURO SOCIAL",
    "MUNICIPIO": "TEPATITLAN DE MORELOS",
    "LOCALIDAD": "CAPILLA DE GUADALUPE",
    "NOMBRE DE LA UNIDAD": "UMF 160 CAPILLA GPE.",
    "ESTRATO UNIDAD": "URBANO",
    "LATITUD": "20.8263516",
    "LONGITUD": "-102.5829442"
  },
  {
    "NOMBRE DE LA INSTITUCION": "INSTITUTO MEXICANO DEL SEGURO SOCIAL",
    "MUNICIPIO": "UNION DE SAN ANTONIO",
    "LOCALIDAD": "UNION DE SAN ANTONIO",
    "NOMBRE DE LA UNIDAD": "UNIDAD DE MEDICINA FAMILIAR NO. 17",
    "ESTRATO UNIDAD": "URBANO",
    "LATITUD": "19.5303",
    "LONGITUD": "-103.438"
  },
  {
    "NOMBRE DE LA INSTITUCION": "INSTITUTO MEXICANO DEL SEGURO SOCIAL",
    "MUNICIPIO": "PUERTO VALLARTA",
    "LOCALIDAD": "PUERTO VALLARTA",
    "NOMBRE DE LA UNIDAD": "UNIDAD DE MEDICINA FAMILIAR NO. 170",
    "ESTRATO UNIDAD": "URBANO",
    "LATITUD": "20.6537377",
    "LONGITUD": "-105.2348891"
  },
  {
    "NOMBRE DE LA INSTITUCION": "INSTITUTO MEXICANO DEL SEGURO SOCIAL",
    "MUNICIPIO": "AUTLAN DE NAVARRO",
    "LOCALIDAD": "AUTLAN DE NAVARRO",
    "NOMBRE DE LA UNIDAD": "UNIDAD DE MEDICINA FAMILIAR NO. 37",
    "ESTRATO UNIDAD": "URBANO",
    "LATITUD": "19.7708",
    "LONGITUD": "-104.369"
  },
  {
    "NOMBRE DE LA INSTITUCION": "INSTITUTO MEXICANO DEL SEGURO SOCIAL",
    "MUNICIPIO": "SAN PEDRO TLAQUEPAQUE",
    "LOCALIDAD": "TLAQUEPAQUE",
    "NOMBRE DE LA UNIDAD": "UNIDAD DE MEDICINA FAMILIAR NO. 39",
    "ESTRATO UNIDAD": "URBANO",
    "LATITUD": "20.626223",
    "LONGITUD": "-103.321946"
  },
  {
    "NOMBRE DE LA INSTITUCION": "INSTITUTO MEXICANO DEL SEGURO SOCIAL",
    "MUNICIPIO": "SAN PEDRO TLAQUEPAQUE",
    "LOCALIDAD": "TLAQUEPAQUE",
    "NOMBRE DE LA UNIDAD": "UNIDAD DE MEDICINA FAMILIAR NO. 98",
    "ESTRATO UNIDAD": "URBANO",
    "LATITUD": "20.6818652",
    "LONGITUD": "-103.8501531"
  },
  {
    "NOMBRE DE LA INSTITUCION": "INSTITUTO MEXICANO DEL SEGURO SOCIAL",
    "MUNICIPIO": "LAGOS DE MORENO",
    "LOCALIDAD": "LAGOS DE MORENO",
    "NOMBRE DE LA UNIDAD": "HGZ-UMAA 7 LAGOS DE MORENO",
    "ESTRATO UNIDAD": "URBANO",
    "LATITUD": "21.3776236",
    "LONGITUD": "-101.9202643"
  },
  {
    "NOMBRE DE LA INSTITUCION": "INSTITUTO MEXICANO DEL SEGURO SOCIAL",
    "MUNICIPIO": "ZAPOPAN",
    "LOCALIDAD": "ZAPOPAN",
    "NOMBRE DE LA UNIDAD": "UMF 178 GUADALUPE",
    "ESTRATO UNIDAD": "URBANO",
    "LATITUD": "20.6584",
    "LONGITUD": "-103.4399785"
  },
  {
    "NOMBRE DE LA INSTITUCION": "INSTITUTO MEXICANO DEL SEGURO SOCIAL",
    "MUNICIPIO": "UNION DE SAN ANTONIO",
    "LOCALIDAD": "UNION DE SAN ANTONIO",
    "NOMBRE DE LA UNIDAD": "UMF 133 UNIÓN",
    "ESTRATO UNIDAD": "URBANO",
    "LATITUD": "21.1291179",
    "LONGITUD": "-102.0078483"
  },
  {
    "NOMBRE DE LA INSTITUCION": "INSTITUTO MEXICANO DEL SEGURO SOCIAL",
    "MUNICIPIO": "TUXPAN",
    "LOCALIDAD": "ATENQUIQUE",
    "NOMBRE DE LA UNIDAD": "UMFH 17 ATENTIQUE",
    "ESTRATO UNIDAD": "RURAL",
    "LATITUD": "19.5303",
    "LONGITUD": "-103.438"
  },
  {
    "NOMBRE DE LA INSTITUCION": "INSTITUTO MEXICANO DEL SEGURO SOCIAL",
    "MUNICIPIO": "TIZAPAN EL ALTO",
    "LOCALIDAD": "TIZAPAN EL ALTO",
    "NOMBRE DE LA UNIDAD": "UMF 155 TIZAPAN ALTO",
    "ESTRATO UNIDAD": "URBANO",
    "LATITUD": "20.1583",
    "LONGITUD": "-103.043"
  },
  {
    "NOMBRE DE LA INSTITUCION": "INSTITUTO MEXICANO DEL SEGURO SOCIAL",
    "MUNICIPIO": "SAN JULIAN",
    "LOCALIDAD": "SAN JULIAN",
    "NOMBRE DE LA UNIDAD": "UMF 132 SAN JULIÁN",
    "ESTRATO UNIDAD": "URBANO",
    "LATITUD": "21.0103",
    "LONGITUD": "-102.179"
  },
  {
    "NOMBRE DE LA INSTITUCION": "INSTITUTO MEXICANO DEL SEGURO SOCIAL",
    "MUNICIPIO": "OJUELOS DE JALISCO",
    "LOCALIDAD": "OJUELOS DE JALISCO",
    "NOMBRE DE LA UNIDAD": "UMF 130 OJUELOS",
    "ESTRATO UNIDAD": "URBANO",
    "LATITUD": "21.8615386",
    "LONGITUD": "-101.5940746"
  },
  {
    "NOMBRE DE LA INSTITUCION": "INSTITUTO MEXICANO DEL SEGURO SOCIAL",
    "MUNICIPIO": "TEUCHITLAN",
    "LOCALIDAD": "TEUCHITLAN",
    "NOMBRE DE LA UNIDAD": "UMF 98 TEUCHITLÁN",
    "ESTRATO UNIDAD": "URBANO",
    "LATITUD": "20.6818652",
    "LONGITUD": "-103.8501531"
  },
  {
    "NOMBRE DE LA INSTITUCION": "INSTITUTO MEXICANO DEL SEGURO SOCIAL",
    "MUNICIPIO": "PUERTO VALLARTA",
    "LOCALIDAD": "PUERTO VALLARTA",
    "NOMBRE DE LA UNIDAD": "UMF 179 LAS PAROTAS",
    "ESTRATO UNIDAD": "URBANO",
    "LATITUD": "20.675421",
    "LONGITUD": "-105.204564"
  },
  {
    "NOMBRE DE LA INSTITUCION": "INSTITUTO MEXICANO DEL SEGURO SOCIAL",
    "MUNICIPIO": "GUADALAJARA",
    "LOCALIDAD": "GUADALAJARA",
    "NOMBRE DE LA UNIDAD": "CSS GUADALAJARA",
    "ESTRATO UNIDAD": "URBANO",
    "LATITUD": "20.6652",
    "LONGITUD": "-103.349"
  },
  {
    "NOMBRE DE LA INSTITUCION": "INSTITUTO MEXICANO DEL SEGURO SOCIAL",
    "MUNICIPIO": "LAGOS DE MORENO",
    "LOCALIDAD": "LAGOS DE MORENO",
    "NOMBRE DE LA UNIDAD": "CSS LAGOS DE MORENO",
    "ESTRATO UNIDAD": "URBANO",
    "LATITUD": "21.3585",
    "LONGITUD": "-101.928"
  },
  {
    "NOMBRE DE LA INSTITUCION": "INSTITUTO MEXICANO DEL SEGURO SOCIAL",
    "MUNICIPIO": "OCOTLAN",
    "LOCALIDAD": "OCOTLAN",
    "NOMBRE DE LA UNIDAD": "CSS OCOTLÁN",
    "ESTRATO UNIDAD": "URBANO",
    "LATITUD": "20.3552",
    "LONGITUD": "-102.774"
  },
  {
    "NOMBRE DE LA INSTITUCION": "INSTITUTO MEXICANO DEL SEGURO SOCIAL",
    "MUNICIPIO": "ZAPOTLAN EL GRANDE",
    "LOCALIDAD": "CIUDAD GUZMAN",
    "NOMBRE DE LA UNIDAD": "CSS CIUDAD GUZMÁN",
    "ESTRATO UNIDAD": "URBANO",
    "LATITUD": "19.7102",
    "LONGITUD": "-103.461"
  },
  {
    "NOMBRE DE LA INSTITUCION": "INSTITUTO MEXICANO DEL SEGURO SOCIAL",
    "MUNICIPIO": "TLAJOMULCO DE ZUÑIGA",
    "LOCALIDAD": "TLAJOMULCO DE ZUÑIGA",
    "NOMBRE DE LA UNIDAD": "HGR 180 TLAJOMULCO",
    "ESTRATO UNIDAD": "URBANO",
    "LATITUD": "20.5078171",
    "LONGITUD": "-103.3990752"
  },
  {
    "NOMBRE DE LA INSTITUCION": "INSTITUTO MEXICANO DEL SEGURO SOCIAL",
    "MUNICIPIO": "IXTLAHUACAN DE LOS MEMBRILLOS",
    "LOCALIDAD": "IXTLAHUACAN DE LOS MEMBRILLOS",
    "NOMBRE DE LA UNIDAD": "UMF 181 LOS SABINOS",
    "ESTRATO UNIDAD": "URBANO",
    "LATITUD": "20.3483188",
    "LONGITUD": "-103.1921455"
  },
  {
    "NOMBRE DE LA INSTITUCION": "INSTITUTO MEXICANO DEL SEGURO SOCIAL",
    "MUNICIPIO": "ZAPOPAN",
    "LOCALIDAD": "TESISTAN (SAN FRANCISCO TESISTAN)",
    "NOMBRE DE LA UNIDAD": "UMF 182 TESISTÁN",
    "ESTRATO UNIDAD": "URBANO",
    "LATITUD": "20.7869849",
    "LONGITUD": "-103.4822869"
  },
  {
    "NOMBRE DE LA INSTITUCION": "INSTITUTO MEXICANO DEL SEGURO SOCIAL",
    "MUNICIPIO": "GUADALAJARA",
    "LOCALIDAD": "GUADALAJARA",
    "NOMBRE DE LA UNIDAD": "UDDX CAMA JALISCO",
    "ESTRATO UNIDAD": "URBANO",
    "LATITUD": "20.7126528",
    "LONGITUD": "-103.3046325"
  },
  {
    "NOMBRE DE LA INSTITUCION": "INSTITUTO MEXICANO DEL SEGURO SOCIAL",
    "MUNICIPIO": "SAN IGNACIO CERRO GORDO",
    "LOCALIDAD": "SAN IGNACIO CERRO GORDO",
    "NOMBRE DE LA UNIDAD": "UMF 183 SAN IGNACIO CERRO GORDO",
    "ESTRATO UNIDAD": "URBANO",
    "LATITUD": "20.747366",
    "LONGITUD": "-102.52874"
  },
  {
    "NOMBRE DE LA INSTITUCION": "INSTITUTO MEXICANO DEL SEGURO SOCIAL",
    "MUNICIPIO": "TONALA",
    "LOCALIDAD": "COYULA",
    "NOMBRE DE LA UNIDAD": "UMF 184 CERRO DE LA REINA",
    "ESTRATO UNIDAD": "URBANO",
    "LATITUD": "20.652615",
    "LONGITUD": "-103.229499"
  },
  {
    "NOMBRE DE LA INSTITUCION": "INSTITUTO MEXICANO DEL SEGURO SOCIAL",
    "MUNICIPIO": "SAN PEDRO TLAQUEPAQUE",
    "LOCALIDAD": "TLAQUEPAQUE",
    "NOMBRE DE LA UNIDAD": "ALMACÉN DELEGACIONAL EN JALISCO",
    "ESTRATO UNIDAD": "URBANO",
    "LATITUD": "20.609772",
    "LONGITUD": "-103.405861"
  },
  {
    "NOMBRE DE LA INSTITUCION": "INSTITUTO MEXICANO DEL SEGURO SOCIAL",
    "MUNICIPIO": "TECHALUTA DE MONTENEGRO",
    "LOCALIDAD": "TECHALUTA DE MONTENEGRO",
    "NOMBRE DE LA UNIDAD": "UMF 65 TECHALUTA",
    "ESTRATO UNIDAD": "URBANO",
    "LATITUD": "20.0699",
    "LONGITUD": "-103.5483"
  },
  {
    "NOMBRE DE LA INSTITUCION": "INSTITUTO MEXICANO DEL SEGURO SOCIAL",
    "MUNICIPIO": "GUADALAJARA",
    "LOCALIDAD": "GUADALAJARA",
    "NOMBRE DE LA UNIDAD": "OOAD DE JALISCO",
    "ESTRATO UNIDAD": "URBANO",
    "LATITUD": "20.6868821",
    "LONGITUD": "-103.3261957"
  },
  {
    "NOMBRE DE LA INSTITUCION": "INSTITUTO MEXICANO DEL SEGURO SOCIAL",
    "MUNICIPIO": "ARANDAS",
    "LOCALIDAD": "RINCONADA DE LOS VAZQUEZ [FRACCIONAMIENTO]",
    "NOMBRE DE LA UNIDAD": "HOSPITAL GENERAL DE SUBZONA ARANDAS NO.185 JALISCO",
    "ESTRATO UNIDAD": "RURAL",
    "LATITUD": "20.7126198",
    "LONGITUD": "-102.3730311"
  },
  {
    "NOMBRE DE LA INSTITUCION": "INSTITUTO DE SEGURIDAD Y SERVICIOS SOCIALES DE LOS TRABAJADORES DEL ESTADO",
    "MUNICIPIO": "AMECA",
    "LOCALIDAD": "AMECA",
    "NOMBRE DE LA UNIDAD": "UMF AMECA",
    "ESTRATO UNIDAD": "RURAL",
    "LATITUD": "20.5528948",
    "LONGITUD": "-104.0487618"
  },
  {
    "NOMBRE DE LA INSTITUCION": "INSTITUTO DE SEGURIDAD Y SERVICIOS SOCIALES DE LOS TRABAJADORES DEL ESTADO",
    "MUNICIPIO": "AUTLAN DE NAVARRO",
    "LOCALIDAD": "AUTLAN DE NAVARRO",
    "NOMBRE DE LA UNIDAD": "CMF AUTLAN DE NAVARRO",
    "ESTRATO UNIDAD": "URBANO",
    "LATITUD": "19.7681751",
    "LONGITUD": "-104.3809703"
  },
  {
    "NOMBRE DE LA INSTITUCION": "INSTITUTO DE SEGURIDAD Y SERVICIOS SOCIALES DE LOS TRABAJADORES DEL ESTADO",
    "MUNICIPIO": "LA BARCA",
    "LOCALIDAD": "LA BARCA",
    "NOMBRE DE LA UNIDAD": "UMF LA BARCA",
    "ESTRATO UNIDAD": "URBANO",
    "LATITUD": "20.2929927",
    "LONGITUD": "-102.5554239"
  },
  {
    "NOMBRE DE LA INSTITUCION": "INSTITUTO DE SEGURIDAD Y SERVICIOS SOCIALES DE LOS TRABAJADORES DEL ESTADO",
    "MUNICIPIO": "ZAPOTLAN EL GRANDE",
    "LOCALIDAD": "CIUDAD GUZMAN",
    "NOMBRE DE LA UNIDAD": "CH CD. GUZMÁN",
    "ESTRATO UNIDAD": "URBANO",
    "LATITUD": "19.6849072",
    "LONGITUD": "-103.4677398"
  },
  {
    "NOMBRE DE LA INSTITUCION": "INSTITUTO DE SEGURIDAD Y SERVICIOS SOCIALES DE LOS TRABAJADORES DEL ESTADO",
    "MUNICIPIO": "COCULA",
    "LOCALIDAD": "COCULA",
    "NOMBRE DE LA UNIDAD": "UMF COCULA",
    "ESTRATO UNIDAD": "URBANO",
    "LATITUD": "20.3570806",
    "LONGITUD": "-103.8167132"
  },
  {
    "NOMBRE DE LA INSTITUCION": "INSTITUTO DE SEGURIDAD Y SERVICIOS SOCIALES DE LOS TRABAJADORES DEL ESTADO",
    "MUNICIPIO": "EL GRULLO",
    "LOCALIDAD": "EL GRULLO",
    "NOMBRE DE LA UNIDAD": "UMF EL GRULLO",
    "ESTRATO UNIDAD": "URBANO",
    "LATITUD": "19.7990399",
    "LONGITUD": "-104.2150488"
  },
  {
    "NOMBRE DE LA INSTITUCION": "INSTITUTO DE SEGURIDAD Y SERVICIOS SOCIALES DE LOS TRABAJADORES DEL ESTADO",
    "MUNICIPIO": "GUADALAJARA",
    "LOCALIDAD": "GUADALAJARA",
    "NOMBRE DE LA UNIDAD": "CMF \"DR. ARTURO GLEZ.\", GUADALAJARA # 1",
    "ESTRATO UNIDAD": "URBANO",
    "LATITUD": "20.688022",
    "LONGITUD": "-103.3300805"
  },
  {
    "NOMBRE DE LA INSTITUCION": "INSTITUTO DE SEGURIDAD Y SERVICIOS SOCIALES DE LOS TRABAJADORES DEL ESTADO",
    "MUNICIPIO": "PUERTO VALLARTA",
    "LOCALIDAD": "PUERTO VALLARTA",
    "NOMBRE DE LA UNIDAD": "CH PUERTO VALLARTA",
    "ESTRATO UNIDAD": "URBANO",
    "LATITUD": "20.6466548",
    "LONGITUD": "-105.2203837"
  },
  {
    "NOMBRE DE LA INSTITUCION": "INSTITUTO DE SEGURIDAD Y SERVICIOS SOCIALES DE LOS TRABAJADORES DEL ESTADO",
    "MUNICIPIO": "TECOLOTLAN",
    "LOCALIDAD": "TECOLOTLAN",
    "NOMBRE DE LA UNIDAD": "UMF TECOLOTLÁN",
    "ESTRATO UNIDAD": "URBANO",
    "LATITUD": "20.20367",
    "LONGITUD": "-104.05109"
  },
  {
    "NOMBRE DE LA INSTITUCION": "INSTITUTO DE SEGURIDAD Y SERVICIOS SOCIALES DE LOS TRABAJADORES DEL ESTADO",
    "MUNICIPIO": "TEOCALTICHE",
    "LOCALIDAD": "TEOCALTICHE",
    "NOMBRE DE LA UNIDAD": "UMF TEOCALTICHE",
    "ESTRATO UNIDAD": "URBANO",
    "LATITUD": "21.4245247",
    "LONGITUD": "-102.5726008"
  },
  {
    "NOMBRE DE LA INSTITUCION": "INSTITUTO DE SEGURIDAD Y SERVICIOS SOCIALES DE LOS TRABAJADORES DEL ESTADO",
    "MUNICIPIO": "TEPATITLAN DE MORELOS",
    "LOCALIDAD": "TEPATITLAN DE MORELOS",
    "NOMBRE DE LA UNIDAD": "UMF TEPATITLÁN DE MORELOS",
    "ESTRATO UNIDAD": "URBANO",
    "LATITUD": "20.809214",
    "LONGITUD": "-102.765862"
  },
  {
    "NOMBRE DE LA INSTITUCION": "INSTITUTO DE SEGURIDAD Y SERVICIOS SOCIALES DE LOS TRABAJADORES DEL ESTADO",
    "MUNICIPIO": "TOMATLAN",
    "LOCALIDAD": "TOMATLAN",
    "NOMBRE DE LA UNIDAD": "UMF TOMATLÁN",
    "ESTRATO UNIDAD": "URBANO",
    "LATITUD": "19.9390286",
    "LONGITUD": "-105.2505888"
  },
  {
    "NOMBRE DE LA INSTITUCION": "INSTITUTO DE SEGURIDAD Y SERVICIOS SOCIALES DE LOS TRABAJADORES DEL ESTADO",
    "MUNICIPIO": "ZAPOPAN",
    "LOCALIDAD": "ZAPOPAN",
    "NOMBRE DE LA UNIDAD": "HR/HAE \"VALENTÍN GÓMEZ FARIAS\", ZAPOPAN",
    "ESTRATO UNIDAD": "URBANO",
    "LATITUD": "20.7186359",
    "LONGITUD": "-103.3873164"
  },
  {
    "NOMBRE DE LA INSTITUCION": "INSTITUTO DE SEGURIDAD Y SERVICIOS SOCIALES DE LOS TRABAJADORES DEL ESTADO",
    "MUNICIPIO": "TEQUILA",
    "LOCALIDAD": "TEQUILA",
    "NOMBRE DE LA UNIDAD": "CAF TEQUILA",
    "ESTRATO UNIDAD": "URBANO",
    "LATITUD": "20.8769988",
    "LONGITUD": "-103.8388776"
  },
  {
    "NOMBRE DE LA INSTITUCION": "INSTITUTO DE SEGURIDAD Y SERVICIOS SOCIALES DE LOS TRABAJADORES DEL ESTADO",
    "MUNICIPIO": "ACATLAN DE JUAREZ",
    "LOCALIDAD": "ACATLAN DE JUAREZ",
    "NOMBRE DE LA UNIDAD": "CAF ACATLÁN DE JUÁREZ",
    "ESTRATO UNIDAD": "URBANO",
    "LATITUD": "20.4215264",
    "LONGITUD": "-103.5921339"
  },
  {
    "NOMBRE DE LA INSTITUCION": "INSTITUTO DE SEGURIDAD Y SERVICIOS SOCIALES DE LOS TRABAJADORES DEL ESTADO",
    "MUNICIPIO": "AHUALULCO DE MERCADO",
    "LOCALIDAD": "AHUALULCO DE MERCADO",
    "NOMBRE DE LA UNIDAD": "UMF AHUALULCO DE MERCADO",
    "ESTRATO UNIDAD": "URBANO",
    "LATITUD": "20.6981199",
    "LONGITUD": "-103.9738083"
  },
  {
    "NOMBRE DE LA INSTITUCION": "INSTITUTO DE SEGURIDAD Y SERVICIOS SOCIALES DE LOS TRABAJADORES DEL ESTADO",
    "MUNICIPIO": "ARANDAS",
    "LOCALIDAD": "ARANDAS",
    "NOMBRE DE LA UNIDAD": "CAF ARANDAS",
    "ESTRATO UNIDAD": "URBANO",
    "LATITUD": "20.7053613",
    "LONGITUD": "-102.3441033"
  },
  {
    "NOMBRE DE LA INSTITUCION": "INSTITUTO DE SEGURIDAD Y SERVICIOS SOCIALES DE LOS TRABAJADORES DEL ESTADO",
    "MUNICIPIO": "EL ARENAL",
    "LOCALIDAD": "EL ARENAL",
    "NOMBRE DE LA UNIDAD": "CAF EL ARENAL",
    "ESTRATO UNIDAD": "URBANO",
    "LATITUD": "20.7751895",
    "LONGITUD": "-103.6927056"
  },
  {
    "NOMBRE DE LA INSTITUCION": "INSTITUTO DE SEGURIDAD Y SERVICIOS SOCIALES DE LOS TRABAJADORES DEL ESTADO",
    "MUNICIPIO": "ATOTONILCO EL ALTO",
    "LOCALIDAD": "ATOTONILCO EL ALTO",
    "NOMBRE DE LA UNIDAD": "CAF ATOTONILCO EL ALTO",
    "ESTRATO UNIDAD": "URBANO",
    "LATITUD": "20.5496474",
    "LONGITUD": "-102.5066802"
  },
  {
    "NOMBRE DE LA INSTITUCION": "INSTITUTO DE SEGURIDAD Y SERVICIOS SOCIALES DE LOS TRABAJADORES DEL ESTADO",
    "MUNICIPIO": "AYOTLAN",
    "LOCALIDAD": "AYOTLAN",
    "NOMBRE DE LA UNIDAD": "CAF AYOTLÁN",
    "ESTRATO UNIDAD": "URBANO",
    "LATITUD": "20.529299",
    "LONGITUD": "-102.3277257"
  },
  {
    "NOMBRE DE LA INSTITUCION": "INSTITUTO DE SEGURIDAD Y SERVICIOS SOCIALES DE LOS TRABAJADORES DEL ESTADO",
    "MUNICIPIO": "AYUTLA",
    "LOCALIDAD": "AYUTLA",
    "NOMBRE DE LA UNIDAD": "CAF AYUTLA",
    "ESTRATO UNIDAD": "URBANO",
    "LATITUD": "20.1307272",
    "LONGITUD": "-104.3461323"
  },
  {
    "NOMBRE DE LA INSTITUCION": "INSTITUTO DE SEGURIDAD Y SERVICIOS SOCIALES DE LOS TRABAJADORES DEL ESTADO",
    "MUNICIPIO": "BOLAÑOS",
    "LOCALIDAD": "LA CIENEGA",
    "NOMBRE DE LA UNIDAD": "CAF BOLAÑOS",
    "ESTRATO UNIDAD": "RURAL",
    "LATITUD": "21.8748085",
    "LONGITUD": "-104.0128076"
  },
  {
    "NOMBRE DE LA INSTITUCION": "INSTITUTO DE SEGURIDAD Y SERVICIOS SOCIALES DE LOS TRABAJADORES DEL ESTADO",
    "MUNICIPIO": "CABO CORRIENTES",
    "LOCALIDAD": "EL TUITO",
    "NOMBRE DE LA UNIDAD": "CAF EL TUITO",
    "ESTRATO UNIDAD": "URBANO",
    "LATITUD": "20.3196386",
    "LONGITUD": "-105.3268647"
  },
  {
    "NOMBRE DE LA INSTITUCION": "INSTITUTO DE SEGURIDAD Y SERVICIOS SOCIALES DE LOS TRABAJADORES DEL ESTADO",
    "MUNICIPIO": "CASIMIRO CASTILLO",
    "LOCALIDAD": "LA RESOLANA",
    "NOMBRE DE LA UNIDAD": "CAF CASIMIRO CASTILLO",
    "ESTRATO UNIDAD": "URBANO",
    "LATITUD": "19.6010426",
    "LONGITUD": "-104.4351884"
  },
  {
    "NOMBRE DE LA INSTITUCION": "INSTITUTO DE SEGURIDAD Y SERVICIOS SOCIALES DE LOS TRABAJADORES DEL ESTADO",
    "MUNICIPIO": "CIHUATLAN",
    "LOCALIDAD": "CIHUATLAN",
    "NOMBRE DE LA UNIDAD": "CAF CIHUATLÁN",
    "ESTRATO UNIDAD": "URBANO",
    "LATITUD": "19.2394438",
    "LONGITUD": "-104.5634061"
  },
  {
    "NOMBRE DE LA INSTITUCION": "INSTITUTO DE SEGURIDAD Y SERVICIOS SOCIALES DE LOS TRABAJADORES DEL ESTADO",
    "MUNICIPIO": "CIHUATLAN",
    "LOCALIDAD": "SAN PATRICIO (MELAQUE)",
    "NOMBRE DE LA UNIDAD": "CAF SAN PATRICIO MELAQUE",
    "ESTRATO UNIDAD": "URBANO",
    "LATITUD": "19.2225796",
    "LONGITUD": "-104.7014782"
  },
  {
    "NOMBRE DE LA INSTITUCION": "INSTITUTO DE SEGURIDAD Y SERVICIOS SOCIALES DE LOS TRABAJADORES DEL ESTADO",
    "MUNICIPIO": "COLOTLAN",
    "LOCALIDAD": "COLOTLAN",
    "NOMBRE DE LA UNIDAD": "CAF COLOTLÁN",
    "ESTRATO UNIDAD": "URBANO",
    "LATITUD": "22.1180631",
    "LONGITUD": "-103.262363"
  },
  {
    "NOMBRE DE LA INSTITUCION": "INSTITUTO DE SEGURIDAD Y SERVICIOS SOCIALES DE LOS TRABAJADORES DEL ESTADO",
    "MUNICIPIO": "CUAUTITLAN DE GARCIA BARRAGAN",
    "LOCALIDAD": "CUAUTITLAN DE GARCIA BARRAGAN",
    "NOMBRE DE LA UNIDAD": "CAF CUAUTITLÁN",
    "ESTRATO UNIDAD": "URBANO",
    "LATITUD": "19.4489599",
    "LONGITUD": "-104.3610173"
  },
  {
    "NOMBRE DE LA INSTITUCION": "INSTITUTO DE SEGURIDAD Y SERVICIOS SOCIALES DE LOS TRABAJADORES DEL ESTADO",
    "MUNICIPIO": "CUQUIO",
    "LOCALIDAD": "CUQUIO",
    "NOMBRE DE LA UNIDAD": "CAF CUQUIO",
    "ESTRATO UNIDAD": "URBANO",
    "LATITUD": "20.9306992",
    "LONGITUD": "-103.0261443"
  },
  {
    "NOMBRE DE LA INSTITUCION": "INSTITUTO DE SEGURIDAD Y SERVICIOS SOCIALES DE LOS TRABAJADORES DEL ESTADO",
    "MUNICIPIO": "CHAPALA",
    "LOCALIDAD": "CHAPALA",
    "NOMBRE DE LA UNIDAD": "CAF CHAPALA",
    "ESTRATO UNIDAD": "URBANO",
    "LATITUD": "20.2934469",
    "LONGITUD": "-103.1917456"
  },
  {
    "NOMBRE DE LA INSTITUCION": "INSTITUTO DE SEGURIDAD Y SERVICIOS SOCIALES DE LOS TRABAJADORES DEL ESTADO",
    "MUNICIPIO": "DEGOLLADO",
    "LOCALIDAD": "DEGOLLADO",
    "NOMBRE DE LA UNIDAD": "CAF DEGOLLADO",
    "ESTRATO UNIDAD": "URBANO",
    "LATITUD": "20.4465299",
    "LONGITUD": "-102.1367907"
  },
  {
    "NOMBRE DE LA INSTITUCION": "INSTITUTO DE SEGURIDAD Y SERVICIOS SOCIALES DE LOS TRABAJADORES DEL ESTADO",
    "MUNICIPIO": "ENCARNACION DE DIAZ",
    "LOCALIDAD": "ENCARNACION DE DIAZ",
    "NOMBRE DE LA UNIDAD": "CAF ENCARNACIÓN DE DÍAZ",
    "ESTRATO UNIDAD": "URBANO",
    "LATITUD": "21.5262",
    "LONGITUD": "-102.241"
  },
  {
    "NOMBRE DE LA INSTITUCION": "INSTITUTO DE SEGURIDAD Y SERVICIOS SOCIALES DE LOS TRABAJADORES DEL ESTADO",
    "MUNICIPIO": "ETZATLAN",
    "LOCALIDAD": "ETZATLAN",
    "NOMBRE DE LA UNIDAD": "CAF ETZATLÁN",
    "ESTRATO UNIDAD": "URBANO",
    "LATITUD": "20.7636579",
    "LONGITUD": "-104.0781033"
  },
  {
    "NOMBRE DE LA INSTITUCION": "INSTITUTO DE SEGURIDAD Y SERVICIOS SOCIALES DE LOS TRABAJADORES DEL ESTADO",
    "MUNICIPIO": "GUADALAJARA",
    "LOCALIDAD": "GUADALAJARA",
    "NOMBRE DE LA UNIDAD": "CMCT PALACIO FEDERAL",
    "ESTRATO UNIDAD": "URBANO",
    "LATITUD": "20.6849389",
    "LONGITUD": "-103.3477454"
  },
  {
    "NOMBRE DE LA INSTITUCION": "INSTITUTO DE SEGURIDAD Y SERVICIOS SOCIALES DE LOS TRABAJADORES DEL ESTADO",
    "MUNICIPIO": "GUADALAJARA",
    "LOCALIDAD": "GUADALAJARA",
    "NOMBRE DE LA UNIDAD": "CMCT F.S.T.S.E.",
    "ESTRATO UNIDAD": "URBANO",
    "LATITUD": "20.6936896",
    "LONGITUD": "-103.3517491"
  },
  {
    "NOMBRE DE LA INSTITUCION": "INSTITUTO DE SEGURIDAD Y SERVICIOS SOCIALES DE LOS TRABAJADORES DEL ESTADO",
    "MUNICIPIO": "GUADALAJARA",
    "LOCALIDAD": "GUADALAJARA",
    "NOMBRE DE LA UNIDAD": "CMF GUADALAJARA # 2",
    "ESTRATO UNIDAD": "URBANO",
    "LATITUD": "20.68741",
    "LONGITUD": "-103.36932"
  },
  {
    "NOMBRE DE LA INSTITUCION": "INSTITUTO DE SEGURIDAD Y SERVICIOS SOCIALES DE LOS TRABAJADORES DEL ESTADO",
    "MUNICIPIO": "GUADALAJARA",
    "LOCALIDAD": "GUADALAJARA",
    "NOMBRE DE LA UNIDAD": "CAF U.H. FOVISSSTE MIRAVALLE",
    "ESTRATO UNIDAD": "URBANO",
    "LATITUD": "20.6060582",
    "LONGITUD": "-103.3528313"
  },
  {
    "NOMBRE DE LA INSTITUCION": "INSTITUTO DE SEGURIDAD Y SERVICIOS SOCIALES DE LOS TRABAJADORES DEL ESTADO",
    "MUNICIPIO": "GUADALAJARA",
    "LOCALIDAD": "GUADALAJARA",
    "NOMBRE DE LA UNIDAD": "CMCT U.S.E.D.J.",
    "ESTRATO UNIDAD": "URBANO",
    "LATITUD": "20.72504",
    "LONGITUD": "-103.4301566"
  },
  {
    "NOMBRE DE LA INSTITUCION": "INSTITUTO DE SEGURIDAD Y SERVICIOS SOCIALES DE LOS TRABAJADORES DEL ESTADO",
    "MUNICIPIO": "GUADALAJARA",
    "LOCALIDAD": "GUADALAJARA",
    "NOMBRE DE LA UNIDAD": "CMF GUADALAJARA # 3",
    "ESTRATO UNIDAD": "URBANO",
    "LATITUD": "20.6487261",
    "LONGITUD": "-103.296829"
  },
  {
    "NOMBRE DE LA INSTITUCION": "INSTITUTO DE SEGURIDAD Y SERVICIOS SOCIALES DE LOS TRABAJADORES DEL ESTADO",
    "MUNICIPIO": "GUADALAJARA",
    "LOCALIDAD": "GUADALAJARA",
    "NOMBRE DE LA UNIDAD": "CMCT S.N.T.E.",
    "ESTRATO UNIDAD": "URBANO",
    "LATITUD": "20.6681253",
    "LONGITUD": "-103.3060865"
  },
  {
    "NOMBRE DE LA INSTITUCION": "INSTITUTO DE SEGURIDAD Y SERVICIOS SOCIALES DE LOS TRABAJADORES DEL ESTADO",
    "MUNICIPIO": "GUADALAJARA",
    "LOCALIDAD": "GUADALAJARA",
    "NOMBRE DE LA UNIDAD": "SAN LUIS SOYATLAN",
    "ESTRATO UNIDAD": "URBANO",
    "LATITUD": "20.1964",
    "LONGITUD": "-103.306"
  },
  {
    "NOMBRE DE LA INSTITUCION": "INSTITUTO DE SEGURIDAD Y SERVICIOS SOCIALES DE LOS TRABAJADORES DEL ESTADO",
    "MUNICIPIO": "GUADALAJARA",
    "LOCALIDAD": "GUADALAJARA",
    "NOMBRE DE LA UNIDAD": "CAF U.H.F. UNIDAD MODELO",
    "ESTRATO UNIDAD": "URBANO",
    "LATITUD": "20.6598023",
    "LONGITUD": "-103.33036"
  },
  {
    "NOMBRE DE LA INSTITUCION": "INSTITUTO DE SEGURIDAD Y SERVICIOS SOCIALES DE LOS TRABAJADORES DEL ESTADO",
    "MUNICIPIO": "HUEJUCAR",
    "LOCALIDAD": "HUEJUCAR",
    "NOMBRE DE LA UNIDAD": "CAF HUEJÚCAR",
    "ESTRATO UNIDAD": "URBANO",
    "LATITUD": "22.3569752",
    "LONGITUD": "-103.2114129"
  },
  {
    "NOMBRE DE LA INSTITUCION": "INSTITUTO DE SEGURIDAD Y SERVICIOS SOCIALES DE LOS TRABAJADORES DEL ESTADO",
    "MUNICIPIO": "HUEJUQUILLA EL ALTO",
    "LOCALIDAD": "HUEJUQUILLA EL ALTO",
    "NOMBRE DE LA UNIDAD": "CAF HUEJUQUILLA EL ALTO",
    "ESTRATO UNIDAD": "URBANO",
    "LATITUD": "22.6289973",
    "LONGITUD": "-103.8994893"
  },
  {
    "NOMBRE DE LA INSTITUCION": "INSTITUTO DE SEGURIDAD Y SERVICIOS SOCIALES DE LOS TRABAJADORES DEL ESTADO",
    "MUNICIPIO": "LA HUERTA",
    "LOCALIDAD": "LA HUERTA",
    "NOMBRE DE LA UNIDAD": "UMF LA HUERTA",
    "ESTRATO UNIDAD": "URBANO",
    "LATITUD": "19.4823009",
    "LONGITUD": "-104.641183"
  },
  {
    "NOMBRE DE LA INSTITUCION": "INSTITUTO DE SEGURIDAD Y SERVICIOS SOCIALES DE LOS TRABAJADORES DEL ESTADO",
    "MUNICIPIO": "IXTLAHUACAN DE LOS MEMBRILLOS",
    "LOCALIDAD": "ATEQUIZA",
    "NOMBRE DE LA UNIDAD": "UMF ATEQUIZA",
    "ESTRATO UNIDAD": "URBANO",
    "LATITUD": "20.3992414",
    "LONGITUD": "-103.1430519"
  },
  {
    "NOMBRE DE LA INSTITUCION": "INSTITUTO DE SEGURIDAD Y SERVICIOS SOCIALES DE LOS TRABAJADORES DEL ESTADO",
    "MUNICIPIO": "JALOSTOTITLAN",
    "LOCALIDAD": "JALOSTOTITLAN",
    "NOMBRE DE LA UNIDAD": "CAF JALOSTOTITLÁN",
    "ESTRATO UNIDAD": "URBANO",
    "LATITUD": "21.165904",
    "LONGITUD": "-102.4664612"
  },
  {
    "NOMBRE DE LA INSTITUCION": "INSTITUTO DE SEGURIDAD Y SERVICIOS SOCIALES DE LOS TRABAJADORES DEL ESTADO",
    "MUNICIPIO": "JESUS MARIA",
    "LOCALIDAD": "JESUS MARIA",
    "NOMBRE DE LA UNIDAD": "CAF JESUS MARÍA",
    "ESTRATO UNIDAD": "URBANO",
    "LATITUD": "20.607437",
    "LONGITUD": "-102.2228756"
  },
  {
    "NOMBRE DE LA INSTITUCION": "INSTITUTO DE SEGURIDAD Y SERVICIOS SOCIALES DE LOS TRABAJADORES DEL ESTADO",
    "MUNICIPIO": "JOCOTEPEC",
    "LOCALIDAD": "JOCOTEPEC",
    "NOMBRE DE LA UNIDAD": "CAF JOCOTEPEC",
    "ESTRATO UNIDAD": "URBANO",
    "LATITUD": "20.284152",
    "LONGITUD": "-103.4285853"
  },
  {
    "NOMBRE DE LA INSTITUCION": "INSTITUTO DE SEGURIDAD Y SERVICIOS SOCIALES DE LOS TRABAJADORES DEL ESTADO",
    "MUNICIPIO": "LAGOS DE MORENO",
    "LOCALIDAD": "LAGOS DE MORENO",
    "NOMBRE DE LA UNIDAD": "CMF LAGOS DE MORENO",
    "ESTRATO UNIDAD": "URBANO",
    "LATITUD": "21.3743616",
    "LONGITUD": "-101.9286811"
  },
  {
    "NOMBRE DE LA INSTITUCION": "INSTITUTO DE SEGURIDAD Y SERVICIOS SOCIALES DE LOS TRABAJADORES DEL ESTADO",
    "MUNICIPIO": "MAGDALENA",
    "LOCALIDAD": "MAGDALENA",
    "NOMBRE DE LA UNIDAD": "CAF MAGDALENA",
    "ESTRATO UNIDAD": "URBANO",
    "LATITUD": "20.9094054",
    "LONGITUD": "-103.978706"
  },
  {
    "NOMBRE DE LA INSTITUCION": "INSTITUTO DE SEGURIDAD Y SERVICIOS SOCIALES DE LOS TRABAJADORES DEL ESTADO",
    "MUNICIPIO": "MASCOTA",
    "LOCALIDAD": "MASCOTA",
    "NOMBRE DE LA UNIDAD": "UMF MASCOTA",
    "ESTRATO UNIDAD": "URBANO",
    "LATITUD": "20.522967",
    "LONGITUD": "-104.7868245"
  },
  {
    "NOMBRE DE LA INSTITUCION": "INSTITUTO DE SEGURIDAD Y SERVICIOS SOCIALES DE LOS TRABAJADORES DEL ESTADO",
    "MUNICIPIO": "MAZAMITLA",
    "LOCALIDAD": "MAZAMITLA",
    "NOMBRE DE LA UNIDAD": "CAF MAZAMITLA",
    "ESTRATO UNIDAD": "URBANO",
    "LATITUD": "19.9135952",
    "LONGITUD": "-103.0197921"
  },
  {
    "NOMBRE DE LA INSTITUCION": "INSTITUTO DE SEGURIDAD Y SERVICIOS SOCIALES DE LOS TRABAJADORES DEL ESTADO",
    "MUNICIPIO": "MEZQUITIC",
    "LOCALIDAD": "MEZQUITIC",
    "NOMBRE DE LA UNIDAD": "CAF MEZQUITIC",
    "ESTRATO UNIDAD": "URBANO",
    "LATITUD": "22.3878123",
    "LONGITUD": "-103.7265998"
  },
  {
    "NOMBRE DE LA INSTITUCION": "INSTITUTO DE SEGURIDAD Y SERVICIOS SOCIALES DE LOS TRABAJADORES DEL ESTADO",
    "MUNICIPIO": "MIXTLAN",
    "LOCALIDAD": "MIXTLAN",
    "NOMBRE DE LA UNIDAD": "MIXTLAN",
    "ESTRATO UNIDAD": "URBANO",
    "LATITUD": "20.4412",
    "LONGITUD": "-104.398"
  },
  {
    "NOMBRE DE LA INSTITUCION": "INSTITUTO DE SEGURIDAD Y SERVICIOS SOCIALES DE LOS TRABAJADORES DEL ESTADO",
    "MUNICIPIO": "OCOTLAN",
    "LOCALIDAD": "OCOTLAN",
    "NOMBRE DE LA UNIDAD": "UMF OCOTLAN",
    "ESTRATO UNIDAD": "URBANO",
    "LATITUD": "20.3439003",
    "LONGITUD": "-102.7655118"
  },
  {
    "NOMBRE DE LA INSTITUCION": "INSTITUTO DE SEGURIDAD Y SERVICIOS SOCIALES DE LOS TRABAJADORES DEL ESTADO",
    "MUNICIPIO": "OJUELOS DE JALISCO",
    "LOCALIDAD": "OJUELOS DE JALISCO",
    "NOMBRE DE LA UNIDAD": "CAF OJUELOS DE JALISCO",
    "ESTRATO UNIDAD": "URBANO",
    "LATITUD": "21.8636719",
    "LONGITUD": "-101.5887183"
  },
  {
    "NOMBRE DE LA INSTITUCION": "INSTITUTO DE SEGURIDAD Y SERVICIOS SOCIALES DE LOS TRABAJADORES DEL ESTADO",
    "MUNICIPIO": "PIHUAMO",
    "LOCALIDAD": "PIHUAMO",
    "NOMBRE DE LA UNIDAD": "PIHUAMO",
    "ESTRATO UNIDAD": "URBANO",
    "LATITUD": "19.2533",
    "LONGITUD": "-103.379"
  },
  {
    "NOMBRE DE LA INSTITUCION": "INSTITUTO DE SEGURIDAD Y SERVICIOS SOCIALES DE LOS TRABAJADORES DEL ESTADO",
    "MUNICIPIO": "PONCITLAN",
    "LOCALIDAD": "PONCITLAN",
    "NOMBRE DE LA UNIDAD": "CAF PONCITLÁN",
    "ESTRATO UNIDAD": "URBANO",
    "LATITUD": "20.3840227",
    "LONGITUD": "-102.9276019"
  },
  {
    "NOMBRE DE LA INSTITUCION": "INSTITUTO DE SEGURIDAD Y SERVICIOS SOCIALES DE LOS TRABAJADORES DEL ESTADO",
    "MUNICIPIO": "PUERTO VALLARTA",
    "LOCALIDAD": "LAS PALMAS DE ARRIBA",
    "NOMBRE DE LA UNIDAD": "LAS PALMAS",
    "ESTRATO UNIDAD": "URBANO",
    "LATITUD": "20.8248034",
    "LONGITUD": "-105.1045337"
  },
  {
    "NOMBRE DE LA INSTITUCION": "INSTITUTO DE SEGURIDAD Y SERVICIOS SOCIALES DE LOS TRABAJADORES DEL ESTADO",
    "MUNICIPIO": "VILLA PURIFICACION",
    "LOCALIDAD": "VILLA PURIFICACION",
    "NOMBRE DE LA UNIDAD": "CAF VILLA PURIFICACIÓN",
    "ESTRATO UNIDAD": "URBANO",
    "LATITUD": "19.7188483",
    "LONGITUD": "-104.6101489"
  },
  {
    "NOMBRE DE LA INSTITUCION": "INSTITUTO DE SEGURIDAD Y SERVICIOS SOCIALES DE LOS TRABAJADORES DEL ESTADO",
    "MUNICIPIO": "EL SALTO",
    "LOCALIDAD": "EL SALTO",
    "NOMBRE DE LA UNIDAD": "CAF EL SALTO",
    "ESTRATO UNIDAD": "RURAL",
    "LATITUD": "20.5193449",
    "LONGITUD": "-103.1790875"
  },
  {
    "NOMBRE DE LA INSTITUCION": "INSTITUTO DE SEGURIDAD Y SERVICIOS SOCIALES DE LOS TRABAJADORES DEL ESTADO",
    "MUNICIPIO": "SAN JUAN DE LOS LAGOS",
    "LOCALIDAD": "SAN JUAN DE LOS LAGOS",
    "NOMBRE DE LA UNIDAD": "CAF SAN JUAN DE LOS LAGOS",
    "ESTRATO UNIDAD": "URBANO",
    "LATITUD": "21.2413231",
    "LONGITUD": "-102.3253154"
  },
  {
    "NOMBRE DE LA INSTITUCION": "INSTITUTO DE SEGURIDAD Y SERVICIOS SOCIALES DE LOS TRABAJADORES DEL ESTADO",
    "MUNICIPIO": "SAN JULIAN",
    "LOCALIDAD": "SAN JULIAN",
    "NOMBRE DE LA UNIDAD": "CAF SAN JULIÁN",
    "ESTRATO UNIDAD": "URBANO",
    "LATITUD": "21.0094621",
    "LONGITUD": "-102.1747523"
  },
  {
    "NOMBRE DE LA INSTITUCION": "INSTITUTO DE SEGURIDAD Y SERVICIOS SOCIALES DE LOS TRABAJADORES DEL ESTADO",
    "MUNICIPIO": "SAN MARTIN HIDALGO",
    "LOCALIDAD": "SAN MARTIN HIDALGO",
    "NOMBRE DE LA UNIDAD": "CAF SAN MARTÍN HIDALGO",
    "ESTRATO UNIDAD": "URBANO",
    "LATITUD": "20.4342366",
    "LONGITUD": "-103.9292782"
  },
  {
    "NOMBRE DE LA INSTITUCION": "INSTITUTO DE SEGURIDAD Y SERVICIOS SOCIALES DE LOS TRABAJADORES DEL ESTADO",
    "MUNICIPIO": "SAN MIGUEL EL ALTO",
    "LOCALIDAD": "SAN MIGUEL EL ALTO",
    "NOMBRE DE LA UNIDAD": "UMF SAN MIGUEL EL ALTO",
    "ESTRATO UNIDAD": "URBANO",
    "LATITUD": "21.0292101",
    "LONGITUD": "-102.4155615"
  },
  {
    "NOMBRE DE LA INSTITUCION": "INSTITUTO DE SEGURIDAD Y SERVICIOS SOCIALES DE LOS TRABAJADORES DEL ESTADO",
    "MUNICIPIO": "SAYULA",
    "LOCALIDAD": "SAYULA",
    "NOMBRE DE LA UNIDAD": "CAF SAYULA",
    "ESTRATO UNIDAD": "URBANO",
    "LATITUD": "19.8806743",
    "LONGITUD": "-103.5889166"
  },
  {
    "NOMBRE DE LA INSTITUCION": "INSTITUTO DE SEGURIDAD Y SERVICIOS SOCIALES DE LOS TRABAJADORES DEL ESTADO",
    "MUNICIPIO": "TALA",
    "LOCALIDAD": "TALA",
    "NOMBRE DE LA UNIDAD": "CAF TALA",
    "ESTRATO UNIDAD": "URBANO",
    "LATITUD": "20.6542282",
    "LONGITUD": "-103.7061338"
  },
  {
    "NOMBRE DE LA INSTITUCION": "INSTITUTO DE SEGURIDAD Y SERVICIOS SOCIALES DE LOS TRABAJADORES DEL ESTADO",
    "MUNICIPIO": "TALPA DE ALLENDE",
    "LOCALIDAD": "TALPA DE ALLENDE",
    "NOMBRE DE LA UNIDAD": "CAF TALPA DE ALLENDE",
    "ESTRATO UNIDAD": "URBANO",
    "LATITUD": "20.3898958",
    "LONGITUD": "-104.8236581"
  },
  {
    "NOMBRE DE LA INSTITUCION": "INSTITUTO DE SEGURIDAD Y SERVICIOS SOCIALES DE LOS TRABAJADORES DEL ESTADO",
    "MUNICIPIO": "TAMAZULA DE GORDIANO",
    "LOCALIDAD": "TAMAZULA DE GORDIANO",
    "NOMBRE DE LA UNIDAD": "CAF TAMAZULA DE GORDIANO",
    "ESTRATO UNIDAD": "URBANO",
    "LATITUD": "19.6925",
    "LONGITUD": "-103.2413"
  },
  {
    "NOMBRE DE LA INSTITUCION": "INSTITUTO DE SEGURIDAD Y SERVICIOS SOCIALES DE LOS TRABAJADORES DEL ESTADO",
    "MUNICIPIO": "TAPALPA",
    "LOCALIDAD": "TAPALPA",
    "NOMBRE DE LA UNIDAD": "CAF TAPALPA",
    "ESTRATO UNIDAD": "URBANO",
    "LATITUD": "19.946716",
    "LONGITUD": "-103.7597868"
  },
  {
    "NOMBRE DE LA INSTITUCION": "INSTITUTO DE SEGURIDAD Y SERVICIOS SOCIALES DE LOS TRABAJADORES DEL ESTADO",
    "MUNICIPIO": "TECALITLAN",
    "LOCALIDAD": "TECALITLAN",
    "NOMBRE DE LA UNIDAD": "CAF TECALITLÁN",
    "ESTRATO UNIDAD": "URBANO",
    "LATITUD": "19.4691295",
    "LONGITUD": "-103.3041751"
  },
  {
    "NOMBRE DE LA INSTITUCION": "INSTITUTO DE SEGURIDAD Y SERVICIOS SOCIALES DE LOS TRABAJADORES DEL ESTADO",
    "MUNICIPIO": "TIZAPAN EL ALTO",
    "LOCALIDAD": "TIZAPAN EL ALTO",
    "NOMBRE DE LA UNIDAD": "CAF TIZAPÁN EL ALTO",
    "ESTRATO UNIDAD": "URBANO",
    "LATITUD": "20.164",
    "LONGITUD": "-103.046"
  },
  {
    "NOMBRE DE LA INSTITUCION": "INSTITUTO DE SEGURIDAD Y SERVICIOS SOCIALES DE LOS TRABAJADORES DEL ESTADO",
    "MUNICIPIO": "SAN PEDRO TLAQUEPAQUE",
    "LOCALIDAD": "TLAQUEPAQUE",
    "NOMBRE DE LA UNIDAD": "CMCT S.A.G.A.R.P.A. (ALAMO)",
    "ESTRATO UNIDAD": "URBANO",
    "LATITUD": "20.6260167",
    "LONGITUD": "-103.3203684"
  },
  {
    "NOMBRE DE LA INSTITUCION": "INSTITUTO DE SEGURIDAD Y SERVICIOS SOCIALES DE LOS TRABAJADORES DEL ESTADO",
    "MUNICIPIO": "SAN PEDRO TLAQUEPAQUE",
    "LOCALIDAD": "SAN MARTIN DE LAS FLORES DE ABAJO (LA ABADIA) [FRACCIONAMIENTO]",
    "NOMBRE DE LA UNIDAD": "UMF SAN MARTÍN DE LAS FLORES",
    "ESTRATO UNIDAD": "RURAL",
    "LATITUD": "20.5975331",
    "LONGITUD": "-103.2818922"
  },
  {
    "NOMBRE DE LA INSTITUCION": "INSTITUTO DE SEGURIDAD Y SERVICIOS SOCIALES DE LOS TRABAJADORES DEL ESTADO",
    "MUNICIPIO": "TOMATLAN",
    "LOCALIDAD": "TOMATLAN",
    "NOMBRE DE LA UNIDAD": "CAF TOMATLAN CAMPAMENTO S.A.G.A.R.P.A",
    "ESTRATO UNIDAD": "URBANO",
    "LATITUD": "19.9709489",
    "LONGITUD": "-105.3217504"
  },
  {
    "NOMBRE DE LA INSTITUCION": "INSTITUTO DE SEGURIDAD Y SERVICIOS SOCIALES DE LOS TRABAJADORES DEL ESTADO",
    "MUNICIPIO": "TONALA",
    "LOCALIDAD": "PUENTE GRANDE",
    "NOMBRE DE LA UNIDAD": "CMCT PUENTE GRANDE (CE.FE.RE.SO.)",
    "ESTRATO UNIDAD": "URBANO",
    "LATITUD": "20.571",
    "LONGITUD": "-103.162"
  },
  {
    "NOMBRE DE LA INSTITUCION": "INSTITUTO DE SEGURIDAD Y SERVICIOS SOCIALES DE LOS TRABAJADORES DEL ESTADO",
    "MUNICIPIO": "TOTOTLAN",
    "LOCALIDAD": "TOTOTLAN",
    "NOMBRE DE LA UNIDAD": "CAF TOTOTLÁN",
    "ESTRATO UNIDAD": "URBANO",
    "LATITUD": "20.542442",
    "LONGITUD": "-102.7851785"
  },
  {
    "NOMBRE DE LA INSTITUCION": "INSTITUTO DE SEGURIDAD Y SERVICIOS SOCIALES DE LOS TRABAJADORES DEL ESTADO",
    "MUNICIPIO": "TUXPAN",
    "LOCALIDAD": "TUXPAN",
    "NOMBRE DE LA UNIDAD": "UMF TUXPAN",
    "ESTRATO UNIDAD": "URBANO",
    "LATITUD": "19.5567976",
    "LONGITUD": "-103.383092"
  },
  {
    "NOMBRE DE LA INSTITUCION": "INSTITUTO DE SEGURIDAD Y SERVICIOS SOCIALES DE LOS TRABAJADORES DEL ESTADO",
    "MUNICIPIO": "UNION DE TULA",
    "LOCALIDAD": "UNION DE TULA",
    "NOMBRE DE LA UNIDAD": "UNION DE TULA",
    "ESTRATO UNIDAD": "URBANO",
    "LATITUD": "19.9560516",
    "LONGITUD": "-104.266494"
  },
  {
    "NOMBRE DE LA INSTITUCION": "INSTITUTO DE SEGURIDAD Y SERVICIOS SOCIALES DE LOS TRABAJADORES DEL ESTADO",
    "MUNICIPIO": "SAN GABRIEL",
    "LOCALIDAD": "SAN GABRIEL",
    "NOMBRE DE LA UNIDAD": "CAF SAN GABRIEL",
    "ESTRATO UNIDAD": "URBANO",
    "LATITUD": "19.7466006",
    "LONGITUD": "-103.7688153"
  },
  {
    "NOMBRE DE LA INSTITUCION": "INSTITUTO DE SEGURIDAD Y SERVICIOS SOCIALES DE LOS TRABAJADORES DEL ESTADO",
    "MUNICIPIO": "VILLA GUERRERO",
    "LOCALIDAD": "VILLA GUERRERO",
    "NOMBRE DE LA UNIDAD": "CAF VILLA GUERRERO",
    "ESTRATO UNIDAD": "URBANO",
    "LATITUD": "21.9860918",
    "LONGITUD": "-103.595224"
  },
  {
    "NOMBRE DE LA INSTITUCION": "INSTITUTO DE SEGURIDAD Y SERVICIOS SOCIALES DE LOS TRABAJADORES DEL ESTADO",
    "MUNICIPIO": "YAHUALICA DE GONZALEZ GALLO",
    "LOCALIDAD": "YAHUALICA DE GONZALEZ GALLO",
    "NOMBRE DE LA UNIDAD": "UMF YAHUALICA DE GONZÁLEZ GALLO",
    "ESTRATO UNIDAD": "URBANO",
    "LATITUD": "21.177539",
    "LONGITUD": "-102.8823074"
  },
  {
    "NOMBRE DE LA INSTITUCION": "INSTITUTO DE SEGURIDAD Y SERVICIOS SOCIALES DE LOS TRABAJADORES DEL ESTADO",
    "MUNICIPIO": "ZACOALCO DE TORRES",
    "LOCALIDAD": "ZACOALCO DE TORRES",
    "NOMBRE DE LA UNIDAD": "CAF ZACOALCO DE TORRES",
    "ESTRATO UNIDAD": "URBANO",
    "LATITUD": "20.2318",
    "LONGITUD": "-103.572"
  },
  {
    "NOMBRE DE LA INSTITUCION": "INSTITUTO DE SEGURIDAD Y SERVICIOS SOCIALES DE LOS TRABAJADORES DEL ESTADO",
    "MUNICIPIO": "ZAPOPAN",
    "LOCALIDAD": "ZAPOPAN",
    "NOMBRE DE LA UNIDAD": "CAF U.H.F. ESTATUTO JURÍDICO TUZANIA",
    "ESTRATO UNIDAD": "URBANO",
    "LATITUD": "20.7369296",
    "LONGITUD": "-103.4041522"
  },
  {
    "NOMBRE DE LA INSTITUCION": "INSTITUTO DE SEGURIDAD Y SERVICIOS SOCIALES DE LOS TRABAJADORES DEL ESTADO",
    "MUNICIPIO": "ZAPOTLANEJO",
    "LOCALIDAD": "ZAPOTLANEJO",
    "NOMBRE DE LA UNIDAD": "CAF ZAPOTLANEJO",
    "ESTRATO UNIDAD": "URBANO",
    "LATITUD": "20.6234687",
    "LONGITUD": "-103.061825"
  },
  {
    "NOMBRE DE LA INSTITUCION": "INSTITUTO DE SEGURIDAD Y SERVICIOS SOCIALES DE LOS TRABAJADORES DEL ESTADO",
    "MUNICIPIO": "GUADALAJARA",
    "LOCALIDAD": "GUADALAJARA",
    "NOMBRE DE LA UNIDAD": "CE GUADALAJARA",
    "ESTRATO UNIDAD": "URBANO",
    "LATITUD": "20.6998",
    "LONGITUD": "-103.332"
  },
  {
    "NOMBRE DE LA INSTITUCION": "INSTITUTO DE SEGURIDAD Y SERVICIOS SOCIALES DE LOS TRABAJADORES DEL ESTADO",
    "MUNICIPIO": "GUADALAJARA",
    "LOCALIDAD": "GUADALAJARA",
    "NOMBRE DE LA UNIDAD": "CMCT S.A.T.",
    "ESTRATO UNIDAD": "URBANO",
    "LATITUD": "20.7226698",
    "LONGITUD": "-103.4290391"
  },
  {
    "NOMBRE DE LA INSTITUCION": "INSTITUTO DE SEGURIDAD Y SERVICIOS SOCIALES DE LOS TRABAJADORES DEL ESTADO",
    "MUNICIPIO": "GUADALAJARA",
    "LOCALIDAD": "GUADALAJARA",
    "NOMBRE DE LA UNIDAD": "CMCT TRIBUNAL FEDERAL DE JUSTICIA",
    "ESTRATO UNIDAD": "URBANO",
    "LATITUD": "20.6927624",
    "LONGITUD": "-103.3735943"
  },
  {
    "NOMBRE DE LA INSTITUCION": "INSTITUTO DE SEGURIDAD Y SERVICIOS SOCIALES DE LOS TRABAJADORES DEL ESTADO",
    "MUNICIPIO": "GUACHINANGO",
    "LOCALIDAD": "GUACHINANGO",
    "NOMBRE DE LA UNIDAD": "CAF GUACHINANGO",
    "ESTRATO UNIDAD": "URBANO",
    "LATITUD": "20.5747683",
    "LONGITUD": "-104.3801897"
  },
  {
    "NOMBRE DE LA INSTITUCION": "INSTITUTO DE SEGURIDAD Y SERVICIOS SOCIALES DE LOS TRABAJADORES DEL ESTADO",
    "MUNICIPIO": "ATENGUILLO",
    "LOCALIDAD": "ATENGUILLO",
    "NOMBRE DE LA UNIDAD": "CAF ATENGUILLO",
    "ESTRATO UNIDAD": "URBANO",
    "LATITUD": "20.4134969",
    "LONGITUD": "-104.4945699"
  },
  {
    "NOMBRE DE LA INSTITUCION": "INSTITUTO DE SEGURIDAD Y SERVICIOS SOCIALES DE LOS TRABAJADORES DEL ESTADO",
    "MUNICIPIO": "UNION DE TULA",
    "LOCALIDAD": "UNION DE TULA",
    "NOMBRE DE LA UNIDAD": "UMF UNIÓN DE TULA",
    "ESTRATO UNIDAD": "URBANO",
    "LATITUD": "19.9518675",
    "LONGITUD": "-104.2580518"
  },
  {
    "NOMBRE DE LA INSTITUCION": "INSTITUTO DE SEGURIDAD Y SERVICIOS SOCIALES DE LOS TRABAJADORES DEL ESTADO",
    "MUNICIPIO": "GUADALAJARA",
    "LOCALIDAD": "GUADALAJARA",
    "NOMBRE DE LA UNIDAD": "CMCT SINDICATO NACIONAL DE TRABAJADORES DE LA SECRETARÍA DE SALUD",
    "ESTRATO UNIDAD": "URBANO",
    "LATITUD": "20.662157",
    "LONGITUD": "-103.350793"
  },
  {
    "NOMBRE DE LA INSTITUCION": "INSTITUTO DE SEGURIDAD Y SERVICIOS SOCIALES DE LOS TRABAJADORES DEL ESTADO",
    "MUNICIPIO": "GUADALAJARA",
    "LOCALIDAD": "GUADALAJARA",
    "NOMBRE DE LA UNIDAD": "REPRESENTACIÓN ESTATAL DEL ISSSTE EN JALISCO",
    "ESTRATO UNIDAD": "URBANO",
    "LATITUD": "20.6851897",
    "LONGITUD": "-103.347743"
  },
  {
    "NOMBRE DE LA INSTITUCION": "INSTITUTO DE SEGURIDAD Y SERVICIOS SOCIALES DE LOS TRABAJADORES DEL ESTADO",
    "MUNICIPIO": "TLAJOMULCO DE ZUÑIGA",
    "LOCALIDAD": "TLAJOMULCO DE ZUÑIGA",
    "NOMBRE DE LA UNIDAD": "HR/HAE TLAJOMULCO DE ZÚÑIGA",
    "ESTRATO UNIDAD": "URBANO",
    "LATITUD": "20.4624204",
    "LONGITUD": "-103.4339033"
  },
  {
    "NOMBRE DE LA INSTITUCION": "PETROLEOS MEXICANOS",
    "MUNICIPIO": "SAN PEDRO TLAQUEPAQUE",
    "LOCALIDAD": "TLAQUEPAQUE",
    "NOMBRE DE LA UNIDAD": "CLINICA TLAQUEPAQUE",
    "ESTRATO UNIDAD": "URBANO",
    "LATITUD": "20.6276042",
    "LONGITUD": "-103.3202337"
  },
  {
    "NOMBRE DE LA INSTITUCION": "SECRETARIA DE COMUNICACIONES Y TRANSPORTES",
    "MUNICIPIO": "ZAPOPAN",
    "LOCALIDAD": "ZAPOPAN",
    "NOMBRE DE LA UNIDAD": "UNIDAD DE PROTECCIÓN Y MEDICINA PREVENTIVA EN EL TRANSPORTE GUADALAJARA",
    "ESTRATO UNIDAD": "URBANO",
    "LATITUD": "20.6728696",
    "LONGITUD": "-103.4077172"
  },
  {
    "NOMBRE DE LA INSTITUCION": "JCSDN000010",
    "MUNICIPIO": "JCSDN000010",
    "LOCALIDAD": "JCSDN000010",
    "NOMBRE DE LA UNIDAD": "JCSDN000010",
    "ESTRATO UNIDAD": "URBANO",
    "LATITUD": "20.6678",
    "LONGITUD": "-103.333"
  },
  {
    "NOMBRE DE LA INSTITUCION": "JCSDN000022",
    "MUNICIPIO": "JCSDN000022",
    "LOCALIDAD": "JCSDN000022",
    "NOMBRE DE LA UNIDAD": "JCSDN000022",
    "ESTRATO UNIDAD": "URBANO",
    "LATITUD": "20.6691581",
    "LONGITUD": "-103.3320943"
  },
  {
    "NOMBRE DE LA INSTITUCION": "SECRETARIA DE LA DEFENSA NACIONAL",
    "MUNICIPIO": "ZAPOPAN",
    "LOCALIDAD": "ZAPOPAN",
    "NOMBRE DE LA UNIDAD": "HOSPITAL MILITAR DE ZONA DE ZAPOPAN, JAL",
    "ESTRATO UNIDAD": "URBANO",
    "LATITUD": "20.7603685",
    "LONGITUD": "-103.4398011"
  },
  {
    "NOMBRE DE LA INSTITUCION": "SECRETARIA DE LA DEFENSA NACIONAL",
    "MUNICIPIO": "GUADALAJARA",
    "LOCALIDAD": "GUADALAJARA",
    "NOMBRE DE LA UNIDAD": "P.S1",
    "ESTRATO UNIDAD": "URBANO"
  },
  {
    "NOMBRE DE LA INSTITUCION": "SECRETARIA DE LA DEFENSA NACIONAL",
    "MUNICIPIO": "GUADALAJARA",
    "LOCALIDAD": "GUADALAJARA",
    "NOMBRE DE LA UNIDAD": "CONS.MED.",
    "ESTRATO UNIDAD": "URBANO"
  },
  {
    "NOMBRE DE LA INSTITUCION": "SECRETARIA DE LA DEFENSA NACIONAL",
    "MUNICIPIO": "GUADALAJARA",
    "LOCALIDAD": "GUADALAJARA",
    "NOMBRE DE LA UNIDAD": "SECC.SANIT.",
    "ESTRATO UNIDAD": "URBANO"
  },
  {
    "NOMBRE DE LA INSTITUCION": "SECRETARIA DE LA DEFENSA NACIONAL",
    "MUNICIPIO": "GUADALAJARA",
    "LOCALIDAD": "GUADALAJARA",
    "NOMBRE DE LA UNIDAD": "P.S2",
    "ESTRATO UNIDAD": "URBANO"
  },
  {
    "NOMBRE DE LA INSTITUCION": "SECRETARIA DE LA DEFENSA NACIONAL",
    "MUNICIPIO": "GUADALAJARA",
    "LOCALIDAD": "GUADALAJARA",
    "NOMBRE DE LA UNIDAD": "P.S3",
    "ESTRATO UNIDAD": "URBANO"
  },
  {
    "NOMBRE DE LA INSTITUCION": "SECRETARIA DE LA DEFENSA NACIONAL",
    "MUNICIPIO": "GUADALAJARA",
    "LOCALIDAD": "GUADALAJARA",
    "NOMBRE DE LA UNIDAD": "P.S4",
    "ESTRATO UNIDAD": "URBANO"
  },
  {
    "NOMBRE DE LA INSTITUCION": "SECRETARIA DE LA DEFENSA NACIONAL",
    "MUNICIPIO": "GUADALAJARA",
    "LOCALIDAD": "GUADALAJARA",
    "NOMBRE DE LA UNIDAD": "SECC.SANIT.1",
    "ESTRATO UNIDAD": "URBANO"
  },
  {
    "NOMBRE DE LA INSTITUCION": "SECRETARIA DE LA DEFENSA NACIONAL",
    "MUNICIPIO": "GUADALAJARA",
    "LOCALIDAD": "GUADALAJARA",
    "NOMBRE DE LA UNIDAD": "P.S5",
    "ESTRATO UNIDAD": "URBANO"
  },
  {
    "NOMBRE DE LA INSTITUCION": "SECRETARIA DE LA DEFENSA NACIONAL",
    "MUNICIPIO": "GUADALAJARA",
    "LOCALIDAD": "GUADALAJARA",
    "NOMBRE DE LA UNIDAD": "P.S6",
    "ESTRATO UNIDAD": "URBANO"
  },
  {
    "NOMBRE DE LA INSTITUCION": "SECRETARIA DE LA DEFENSA NACIONAL",
    "MUNICIPIO": "GUADALAJARA",
    "LOCALIDAD": "GUADALAJARA",
    "NOMBRE DE LA UNIDAD": "P.S7",
    "ESTRATO UNIDAD": "URBANO"
  },
  {
    "NOMBRE DE LA INSTITUCION": "SECRETARIA DE LA DEFENSA NACIONAL",
    "MUNICIPIO": "GUADALAJARA",
    "LOCALIDAD": "GUADALAJARA",
    "NOMBRE DE LA UNIDAD": "ESCUADRA",
    "ESTRATO UNIDAD": "URBANO"
  },
  {
    "NOMBRE DE LA INSTITUCION": "SECRETARIA DE LA DEFENSA NACIONAL",
    "MUNICIPIO": "GUADALAJARA",
    "LOCALIDAD": "GUADALAJARA",
    "NOMBRE DE LA UNIDAD": "P.S8",
    "ESTRATO UNIDAD": "URBANO"
  },
  {
    "NOMBRE DE LA INSTITUCION": "SECRETARIA DE LA DEFENSA NACIONAL",
    "MUNICIPIO": "GUADALAJARA",
    "LOCALIDAD": "GUADALAJARA",
    "NOMBRE DE LA UNIDAD": "P.S9",
    "ESTRATO UNIDAD": "URBANO"
  },
  {
    "NOMBRE DE LA INSTITUCION": "SECRETARIA DE LA DEFENSA NACIONAL",
    "MUNICIPIO": "GUADALAJARA",
    "LOCALIDAD": "GUADALAJARA",
    "NOMBRE DE LA UNIDAD": "SECC.SANIT.2",
    "ESTRATO UNIDAD": "URBANO"
  },
  {
    "NOMBRE DE LA INSTITUCION": "SECRETARIA DE LA DEFENSA NACIONAL",
    "MUNICIPIO": "ZAPOPAN",
    "LOCALIDAD": "LA MOJONERA",
    "NOMBRE DE LA UNIDAD": "ANTIGUAS INSTALACIONES DEL COLEGIO DEL AIRE, ZAPOPAN, JAL.",
    "ESTRATO UNIDAD": "RURAL",
    "LATITUD": "20.743117",
    "LONGITUD": "-103.47064"
  },
  {
    "NOMBRE DE LA INSTITUCION": "SECRETARIA DE LA DEFENSA NACIONAL",
    "MUNICIPIO": "ZAPOPAN",
    "LOCALIDAD": "LA MOJONERA",
    "NOMBRE DE LA UNIDAD": "CENTRO DE REHABILITACIÓN INFANTIL GUADALAJARA, JAL.",
    "ESTRATO UNIDAD": "RURAL",
    "LATITUD": "20.73984",
    "LONGITUD": "-103.44929"
  },
  {
    "NOMBRE DE LA INSTITUCION": "SECRETARIA DE MARINA",
    "MUNICIPIO": "PUERTO VALLARTA",
    "LOCALIDAD": "PUERTO VALLARTA",
    "NOMBRE DE LA UNIDAD": "HOSPITAL NAVAL DE PUERTO VALLARTA",
    "ESTRATO UNIDAD": "URBANO",
    "LATITUD": "20.6834221",
    "LONGITUD": "-105.2409127"
  },
  {
    "NOMBRE DE LA INSTITUCION": "SERVICIOS MEDICOS ESTATALES",
    "MUNICIPIO": "GUADALAJARA",
    "LOCALIDAD": "GUADALAJARA",
    "NOMBRE DE LA UNIDAD": "ASILO (IJAS) LEONIDAS K. DEMOS",
    "ESTRATO UNIDAD": "URBANO",
    "LATITUD": "20.67604",
    "LONGITUD": "-103.335337"
  },
  {
    "NOMBRE DE LA INSTITUCION": "SERVICIOS MEDICOS ESTATALES",
    "MUNICIPIO": "ZAPOPAN",
    "LOCALIDAD": "ZAPOPAN",
    "NOMBRE DE LA UNIDAD": "CONSEJOS ESTATALES DE LA SECRETARÍA DE SALUD",
    "ESTRATO UNIDAD": "URBANO",
    "LATITUD": "20.7164053",
    "LONGITUD": "-103.3702932"
  },
  {
    "NOMBRE DE LA INSTITUCION": "SERVICIOS MEDICOS ESTATALES",
    "MUNICIPIO": "GUADALAJARA",
    "LOCALIDAD": "GUADALAJARA",
    "NOMBRE DE LA UNIDAD": "UNIDAD DE MEDICINA FAMILIAR FEDERALISMO",
    "ESTRATO UNIDAD": "URBANO",
    "LATITUD": "20.703439",
    "LONGITUD": "-103.354923"
  },
  {
    "NOMBRE DE LA INSTITUCION": "SERVICIOS MEDICOS ESTATALES",
    "MUNICIPIO": "ZAPOPAN",
    "LOCALIDAD": "ZAPOPAN",
    "NOMBRE DE LA UNIDAD": "UNIDAD DE MEDICINA FAMILIAR LOS OLIVOS",
    "ESTRATO UNIDAD": "URBANO",
    "LATITUD": "20.75201",
    "LONGITUD": "-103.405612"
  },
  {
    "NOMBRE DE LA INSTITUCION": "SERVICIOS MEDICOS ESTATALES",
    "MUNICIPIO": "SAN PEDRO TLAQUEPAQUE",
    "LOCALIDAD": "TLAQUEPAQUE",
    "NOMBRE DE LA UNIDAD": "UNIDAD DE MEDICINA FAMILIAR PILA SECA",
    "ESTRATO UNIDAD": "URBANO",
    "LATITUD": "20.64373",
    "LONGITUD": "-103.31465"
  },
  {
    "NOMBRE DE LA INSTITUCION": "SERVICIOS MEDICOS ESTATALES",
    "MUNICIPIO": "GUADALAJARA",
    "LOCALIDAD": "GUADALAJARA",
    "NOMBRE DE LA UNIDAD": "UNIDAD DE MEDICINA FAMILIAR JAVIER MINA",
    "ESTRATO UNIDAD": "URBANO",
    "LATITUD": "20.664178",
    "LONGITUD": "-103.298237"
  },
  {
    "NOMBRE DE LA INSTITUCION": "SERVICIOS MEDICOS ESTATALES",
    "MUNICIPIO": "GUADALAJARA",
    "LOCALIDAD": "GUADALAJARA",
    "NOMBRE DE LA UNIDAD": "UNIDAD DE MEDICINA FAMILIAR FRAY ANTONIO ALCALDE",
    "ESTRATO UNIDAD": "URBANO",
    "LATITUD": "20.69889",
    "LONGITUD": "-103.3496"
  },
  {
    "NOMBRE DE LA INSTITUCION": "SERVICIOS MEDICOS MUNICIPALES",
    "MUNICIPIO": "ZAPOPAN",
    "LOCALIDAD": "ZAPOPAN",
    "NOMBRE DE LA UNIDAD": "UNIDAD DE URGENCIAS CRUZ VERDE NORTE",
    "ESTRATO UNIDAD": "URBANO",
    "LATITUD": "20.7267107",
    "LONGITUD": "-103.384612"
  },
  {
    "NOMBRE DE LA INSTITUCION": "SERVICIOS MEDICOS MUNICIPALES",
    "MUNICIPIO": "ZAPOPAN",
    "LOCALIDAD": "ZAPOPAN",
    "NOMBRE DE LA UNIDAD": "UNIDAD DE URGENCIAS MÉDICAS CRUZ VERDE FEDERALISMO",
    "ESTRATO UNIDAD": "URBANO",
    "LATITUD": "20.7348596",
    "LONGITUD": "-103.3505085"
  },
  {
    "NOMBRE DE LA INSTITUCION": "SERVICIOS MEDICOS MUNICIPALES",
    "MUNICIPIO": "ZAPOPAN",
    "LOCALIDAD": "ZAPOPAN",
    "NOMBRE DE LA UNIDAD": "UNIDAD DE URGENCIAS CRUZ VERDE SUR",
    "ESTRATO UNIDAD": "URBANO",
    "LATITUD": "20.6323796",
    "LONGITUD": "-103.4160653"
  },
  {
    "NOMBRE DE LA INSTITUCION": "SERVICIOS MEDICOS MUNICIPALES",
    "MUNICIPIO": "ZAPOPAN",
    "LOCALIDAD": "ZAPOPAN",
    "NOMBRE DE LA UNIDAD": "UNIDAD DE URGENCIAS CRUZ VERDE VILLA DE GUADALUPE",
    "ESTRATO UNIDAD": "URBANO",
    "LATITUD": "20.755934",
    "LONGITUD": "-103.3428275"
  },
  {
    "NOMBRE DE LA INSTITUCION": "SERVICIOS MEDICOS MUNICIPALES",
    "MUNICIPIO": "CHAPALA",
    "LOCALIDAD": "CHAPALA",
    "NOMBRE DE LA UNIDAD": "CLÍNICA MUNICIPAL DE CHAPALA",
    "ESTRATO UNIDAD": "URBANO",
    "LATITUD": "20.3054047",
    "LONGITUD": "-103.1891442"
  },
  {
    "NOMBRE DE LA INSTITUCION": "SERVICIOS MEDICOS MUNICIPALES",
    "MUNICIPIO": "JOCOTEPEC",
    "LOCALIDAD": "JOCOTEPEC",
    "NOMBRE DE LA UNIDAD": "HOSPITAL DE URGENCIAS DE JOCOTEPEC",
    "ESTRATO UNIDAD": "URBANO",
    "LATITUD": "20.2784253",
    "LONGITUD": "-103.429741"
  },
  {
    "NOMBRE DE LA INSTITUCION": "SERVICIOS MEDICOS MUNICIPALES",
    "MUNICIPIO": "TLAJOMULCO DE ZUÑIGA",
    "LOCALIDAD": "TLAJOMULCO DE ZUÑIGA",
    "NOMBRE DE LA UNIDAD": "UNIDAD DE URGENCIAS DR. JORGE HUMBERTO SANTOSCOY GARCÍA",
    "ESTRATO UNIDAD": "URBANO",
    "LATITUD": "20.4800294",
    "LONGITUD": "-103.4534954"
  },
  {
    "NOMBRE DE LA INSTITUCION": "SERVICIOS MEDICOS MUNICIPALES",
    "MUNICIPIO": "TLAJOMULCO DE ZUÑIGA",
    "LOCALIDAD": "TLAJOMULCO DE ZUÑIGA",
    "NOMBRE DE LA UNIDAD": "UNIDAD MOVIL DE PROMOCIÓN A LA SALUD",
    "ESTRATO UNIDAD": "URBANO",
    "LATITUD": "20.4800294",
    "LONGITUD": "-103.4534954"
  },
  {
    "NOMBRE DE LA INSTITUCION": "SERVICIOS MEDICOS MUNICIPALES",
    "MUNICIPIO": "GUADALAJARA",
    "LOCALIDAD": "GUADALAJARA",
    "NOMBRE DE LA UNIDAD": "UNIDAD MEDICA DR. ERNESTO ARIAS GONZALEZ",
    "ESTRATO UNIDAD": "URBANO",
    "LATITUD": "20.662378",
    "LONGITUD": "-103.342769"
  },
  {
    "NOMBRE DE LA INSTITUCION": "JCSMM000100",
    "MUNICIPIO": "JCSMM000100",
    "LOCALIDAD": "JCSMM000100",
    "NOMBRE DE LA UNIDAD": "JCSMM000100",
    "ESTRATO UNIDAD": "URBANO",
    "LATITUD": "20.691181",
    "LONGITUD": "-103.351892"
  },
  {
    "NOMBRE DE LA INSTITUCION": "JCSMM000115",
    "MUNICIPIO": "JCSMM000115",
    "LOCALIDAD": "JCSMM000115",
    "NOMBRE DE LA UNIDAD": "JCSMM000115",
    "ESTRATO UNIDAD": "URBANO",
    "LATITUD": "20.646061",
    "LONGITUD": "-103.381981"
  },
  {
    "NOMBRE DE LA INSTITUCION": "JCSMM000124",
    "MUNICIPIO": "JCSMM000124",
    "LOCALIDAD": "JCSMM000124",
    "NOMBRE DE LA UNIDAD": "JCSMM000124",
    "ESTRATO UNIDAD": "URBANO",
    "LATITUD": "20.663139",
    "LONGITUD": "-103.318661"
  },
  {
    "NOMBRE DE LA INSTITUCION": "SERVICIOS MEDICOS MUNICIPALES",
    "MUNICIPIO": "GUADALAJARA",
    "LOCALIDAD": "GUADALAJARA",
    "NOMBRE DE LA UNIDAD": "UNIDAD MÉDICA DR. MARIO RIVAS SOUZA",
    "ESTRATO UNIDAD": "URBANO",
    "LATITUD": "20.717536",
    "LONGITUD": "-103.311164"
  },
  {
    "NOMBRE DE LA INSTITUCION": "SERVICIOS MEDICOS MUNICIPALES",
    "MUNICIPIO": "SAN PEDRO TLAQUEPAQUE",
    "LOCALIDAD": "TLAQUEPAQUE",
    "NOMBRE DE LA UNIDAD": "SERVICIOS MEDICOS MUNICIPALES DE SAN PEDRO TLAQUEPAQUE",
    "ESTRATO UNIDAD": "URBANO",
    "LATITUD": "20.6325183",
    "LONGITUD": "-103.3172194"
  },
  {
    "NOMBRE DE LA INSTITUCION": "SERVICIOS MEDICOS MUNICIPALES",
    "MUNICIPIO": "SAN PEDRO TLAQUEPAQUE",
    "LOCALIDAD": "TLAQUEPAQUE",
    "NOMBRE DE LA UNIDAD": "SERVICIOS MEDICOS MUNICIPALES SAN JOSE ARTESANOS",
    "ESTRATO UNIDAD": "URBANO",
    "LATITUD": "20.6433272",
    "LONGITUD": "-103.3050798"
  },
  {
    "NOMBRE DE LA INSTITUCION": "SERVICIOS MEDICOS MUNICIPALES",
    "MUNICIPIO": "SAN PEDRO TLAQUEPAQUE",
    "LOCALIDAD": "TLAQUEPAQUE",
    "NOMBRE DE LA UNIDAD": "SERVICIOS MEDICOS MUNICIPALES NUEVA SANTA MARIA",
    "ESTRATO UNIDAD": "URBANO",
    "LATITUD": "20.6040866",
    "LONGITUD": "-103.3814908"
  },
  {
    "NOMBRE DE LA INSTITUCION": "SERVICIOS MEDICOS MUNICIPALES",
    "MUNICIPIO": "ZAPOPAN",
    "LOCALIDAD": "ZAPOPAN",
    "NOMBRE DE LA UNIDAD": "HOSPITAL GENERAL DE ZAPOPAN",
    "ESTRATO UNIDAD": "URBANO",
    "LATITUD": "20.7241122",
    "LONGITUD": "-103.3961767"
  },
  {
    "NOMBRE DE LA INSTITUCION": "SERVICIOS MEDICOS MUNICIPALES",
    "MUNICIPIO": "ZAPOPAN",
    "LOCALIDAD": "ZAPOPAN",
    "NOMBRE DE LA UNIDAD": "CRUZ VERDE NIÑA EVA",
    "ESTRATO UNIDAD": "URBANO",
    "LATITUD": "20.7862458",
    "LONGITUD": "-103.461966"
  },
  {
    "NOMBRE DE LA INSTITUCION": "SERVICIOS MEDICOS MUNICIPALES",
    "MUNICIPIO": "ZAPOPAN",
    "LOCALIDAD": "ZAPOPAN",
    "NOMBRE DE LA UNIDAD": "CRUZ VERDE SANTA LUCIA",
    "ESTRATO UNIDAD": "URBANO",
    "LATITUD": "20.7993752",
    "LONGITUD": "-103.496072"
  },
  {
    "NOMBRE DE LA INSTITUCION": "SERVICIOS MEDICOS MUNICIPALES",
    "MUNICIPIO": "TLAJOMULCO DE ZUÑIGA",
    "LOCALIDAD": "TLAJOMULCO DE ZUÑIGA",
    "NOMBRE DE LA UNIDAD": "UNIDAD DE SERVICIOS MEDICOS DEL VALLE",
    "ESTRATO UNIDAD": "URBANO",
    "LATITUD": "20.5290749",
    "LONGITUD": "-103.3771958"
  },
  {
    "NOMBRE DE LA INSTITUCION": "SERVICIOS MEDICOS MUNICIPALES",
    "MUNICIPIO": "TLAJOMULCO DE ZUÑIGA",
    "LOCALIDAD": "TLAJOMULCO DE ZUÑIGA",
    "NOMBRE DE LA UNIDAD": "SERVICIOS MEDICOS MUNICIPALES UNIDAD MEDICA LOS AGAVES",
    "ESTRATO UNIDAD": "URBANO",
    "LATITUD": "20.4737459",
    "LONGITUD": "-103.2784153"
  },
  {
    "NOMBRE DE LA INSTITUCION": "SERVICIOS MEDICOS MUNICIPALES",
    "MUNICIPIO": "UNION DE SAN ANTONIO",
    "LOCALIDAD": "UNION DE SAN ANTONIO",
    "NOMBRE DE LA UNIDAD": "MODULO MEDICO MUNICIPAL UNION DE SAN ANTONIO",
    "ESTRATO UNIDAD": "URBANO",
    "LATITUD": "21.1252522",
    "LONGITUD": "-102.0039312"
  },
  {
    "NOMBRE DE LA INSTITUCION": "SERVICIOS MEDICOS MUNICIPALES",
    "MUNICIPIO": "EL SALTO",
    "LOCALIDAD": "EL SALTO",
    "NOMBRE DE LA UNIDAD": "SERVICIOS MEDICOS MUNICIPALES EL SALTO ¨DR. ANGEL  A. NUÑEZ RANGEL¨",
    "ESTRATO UNIDAD": "URBANO",
    "LATITUD": "20.5189979",
    "LONGITUD": "-103.1784886"
  },
  {
    "NOMBRE DE LA INSTITUCION": "SERVICIOS MEDICOS MUNICIPALES",
    "MUNICIPIO": "GUADALAJARA",
    "LOCALIDAD": "GUADALAJARA",
    "NOMBRE DE LA UNIDAD": "UNIDAD MEDICA DE URGENCIAS  \"IGNACIO ALLENDE\"",
    "ESTRATO UNIDAD": "URBANO",
    "LATITUD": "20.6741812",
    "LONGITUD": "-103.2857563"
  },
  {
    "NOMBRE DE LA INSTITUCION": "SERVICIOS MEDICOS MUNICIPALES",
    "MUNICIPIO": "GUADALAJARA",
    "LOCALIDAD": "GUADALAJARA",
    "NOMBRE DE LA UNIDAD": "U.M.B. PRISCILIANO SANCHEZ SERVICIOS MEDICOS MUNICIPALES DE GUADALAJARA",
    "ESTRATO UNIDAD": "URBANO",
    "LATITUD": "20.689531",
    "LONGITUD": "-103.2953322"
  },
  {
    "NOMBRE DE LA INSTITUCION": "SERVICIOS MEDICOS MUNICIPALES",
    "MUNICIPIO": "GUADALAJARA",
    "LOCALIDAD": "GUADALAJARA",
    "NOMBRE DE LA UNIDAD": "U.M.B BENITO JUAREZ SERVICIOS MEDICOS MUNICIPALES GUADALAJARA",
    "ESTRATO UNIDAD": "URBANO",
    "LATITUD": "20.6256683",
    "LONGITUD": "-103.3685081"
  },
  {
    "NOMBRE DE LA INSTITUCION": "SERVICIOS MEDICOS MUNICIPALES",
    "MUNICIPIO": "GUADALAJARA",
    "LOCALIDAD": "GUADALAJARA",
    "NOMBRE DE LA UNIDAD": "U.M.B. ARTES PLASTICAS - SERVICIOS MÉDICOS MUNICIPALES DE GUADALAJARA",
    "ESTRATO UNIDAD": "URBANO",
    "LATITUD": "20.6176982",
    "LONGITUD": "-103.3448542"
  },
  {
    "NOMBRE DE LA INSTITUCION": "SERVICIOS MEDICOS MUNICIPALES",
    "MUNICIPIO": "GUADALAJARA",
    "LOCALIDAD": "GUADALAJARA",
    "NOMBRE DE LA UNIDAD": "CASA DE SALUD HUENTITAN - SERVICIOS MÉDICOS MUNICIPALES DE GUADALAJARA",
    "ESTRATO UNIDAD": "URBANO",
    "LATITUD": "20.7169835",
    "LONGITUD": "-103.297401"
  },
  {
    "NOMBRE DE LA INSTITUCION": "SERVICIOS MEDICOS MUNICIPALES",
    "MUNICIPIO": "EL SALTO",
    "LOCALIDAD": "LAS PINTAS",
    "NOMBRE DE LA UNIDAD": "UNIDAD MEDICA LAS PINTAS",
    "ESTRATO UNIDAD": "URBANO",
    "LATITUD": "20.5744372",
    "LONGITUD": "-103.3235398"
  },
  {
    "NOMBRE DE LA INSTITUCION": "SERVICIOS MEDICOS MUNICIPALES",
    "MUNICIPIO": "TONALA",
    "LOCALIDAD": "TONALA",
    "NOMBRE DE LA UNIDAD": "UNIDAD MEDICA CRUZ VERDE TONALA NORTE DR. GABRIEL GOMEZ MICHEL",
    "ESTRATO UNIDAD": "URBANO",
    "LATITUD": "20.6837528",
    "LONGITUD": "-103.2564953"
  },
  {
    "NOMBRE DE LA INSTITUCION": "SERVICIOS MEDICOS MUNICIPALES",
    "MUNICIPIO": "CHAPALA",
    "LOCALIDAD": "CHAPALA",
    "NOMBRE DE LA UNIDAD": "SERVICIOS MEDICOS MUNICIPALES CHAPALA",
    "ESTRATO UNIDAD": "URBANO",
    "LATITUD": "20.3055509",
    "LONGITUD": "-103.1890711"
  },
  {
    "NOMBRE DE LA INSTITUCION": "SERVICIOS MEDICOS MUNICIPALES",
    "MUNICIPIO": "ZAPOPAN",
    "LOCALIDAD": "ZAPOPAN",
    "NOMBRE DE LA UNIDAD": "UNIDAD DE URGENCIAS CRUZ VERDE NORTE",
    "ESTRATO UNIDAD": "URBANO",
    "LATITUD": "20.729874",
    "LONGITUD": "-103.3839543"
  },